行政區,熱點名稱,緯度,經度,類型
中壢區,高速公路中壢服務區2,25.004215,121.251925,iTaiwan
中壢區,高速公路中壢服務區1,25.004215,121.251925,iTaiwan
中壢區,板信商業銀行龍岡分行,24.92879,121.251006,iTaiwan
觀音區,台電公司大潭發電廠接待中心,25.02501869,121.050827,iTaiwan
觀音區,觀音新坡郵局,25.01114845,121.1374283,iTaiwan
觀音區,觀音工業區郵局,25.05323982,121.118042,iTaiwan
蘆竹區,臺灣土地銀行南崁分行,25.04575348,121.2921753,iTaiwan
蘆竹區,臺灣銀行南崁分行,25.0509491,121.2887573,iTaiwan
蘆竹區,蘆竹錦興郵局,25.05319405,121.2862396,iTaiwan
蘆竹區,兆豐國際商銀南崁分行,25.04275322,121.2942963,iTaiwan
龜山區,龜山文化郵局,25.05719757,121.3697815,iTaiwan
龜山區,中油公司桃園縣龜山區林口工三站,25.06171989,121.3703995,iTaiwan
龍潭區,龍潭南龍郵局,24.86411095,121.2122192,iTaiwan
龍潭區,龍潭烏林郵局,24.88340569,121.212326,iTaiwan
龍潭區,國軍桃園總醫院病房護理站,24.87702179,121.2349014,iTaiwan
龍潭區,桃園客家文化館郵局,24.84576035,121.2342377,iTaiwan
龍潭區,龍潭大平郵局,24.83152962,121.2442017,iTaiwan
龍潭區,華南商業銀行龍潭分行,24.86921692,121.2140579,iTaiwan
楊梅區,楊梅秀才郵局,24.90101051,121.1408768,iTaiwan
新屋區,新屋郵局,24.97249985,121.1045609,iTaiwan
桃園區,桃園中路郵局,24.98974419,121.2930527,iTaiwan
桃園區,桃園桃鶯郵局,24.97790527,121.3220749,iTaiwan
桃園區,桃園水汴頭郵局,25.0267849,121.3059998,iTaiwan
桃園區,國軍退除役官兵輔導委員會退除役官兵職業訓教務組聯合服務台,25.0005188,121.3254318,iTaiwan
桃園區,兆豐國際商銀桃園分行,24.99297333,121.3137512,iTaiwan
桃園區,桃園民生路郵局,24.99512672,121.3130417,iTaiwan
桃園區,中油公司桃園縣桃園市武陵站,24.98838997,121.2845612,iTaiwan
桃園區,桃園大樹林郵局,24.98375702,121.3223038,iTaiwan
桃園區,國有財產署桃園辦事處,25.00357437,121.3212738,iTaiwan
平鎮市,平鎮高雙郵局,24.95442963,121.1896667,iTaiwan
平鎮市,平鎮郵局,24.94547081,121.2095337,iTaiwan
平鎮市,臺灣土地銀行平鎮分行,24.90043259,121.2081451,iTaiwan
中壢區,兆豐國際商銀北中壢分行,24.96546936,121.2267838,iTaiwan
中壢區,臺灣土地銀行北中壢分行,24.9655571,121.2264557,iTaiwan
中壢區,臺灣土地銀行內壢分行,24.96636581,121.2600021,iTaiwan
中壢區,中油公司中壢直銷中心,24.94405937,121.2299194,iTaiwan
中壢區,華南商業銀行內壢分行,24.96436119,121.2580795,iTaiwan
中壢區,中壢龍岡郵局,24.92560005,121.2435608,iTaiwan
中壢區,中壢仁美郵局,24.93535995,121.2556229,iTaiwan
中壢區,兆豐國際商銀中壢分行1樓,24.95767593,121.2250137,iTaiwan
中壢區,中壢自立郵局,24.96405983,121.2541275,iTaiwan
中壢區,臺灣銀行建國分行,24.9487133,121.2276993,iTaiwan
中壢區,中壢南園郵局,24.97204971,121.2383423,iTaiwan
中壢區,台電公司中壢服務所大廳,24.95698357,121.2240753,iTaiwan
中壢區,華南商業銀行中壢分行,24.95569038,121.2148895,iTaiwan
中壢區,中壢興國郵局,24.96298409,121.2192612,iTaiwan
中壢區,中油公司桃園縣中壢區中壢工業區站,24.96550941,121.2381592,iTaiwan
中壢區,中壢忠義郵局,24.96663094,121.2442932,iTaiwan
中壢區,華南商業銀行壢昌分行,24.95509148,121.2209778,iTaiwan
大溪鎮,大溪崎頂郵局,24.90018082,121.2835083,iTaiwan
大溪鎮,大溪僑愛郵局,24.92281723,121.2949829,iTaiwan
大園區,標準檢驗局新竹分局桃園機場辦事處商檢業務民眾洽公區,25.08970833,121.2475967,iTaiwan
大園區,衛生福利部食品藥物管理署桃園機場民眾等候區,25.09241104,121.2472,iTaiwan
大園區,兆豐國際商銀桃園機場分行,25.07728958,121.2322235,iTaiwan
大園區,臺灣土地銀行大園分行,25.06380463,121.1994324,iTaiwan
八德市,八德高城郵局,24.97525978,121.2711716,iTaiwan
八德市,八德更寮腳郵局,24.93294144,121.2972946,iTaiwan
觀音區,台電公司大潭發電廠接待中心展示區展示廳,25.02989388,121.0593109,iTaiwan
觀音區,行政院農業委員會動植物防疫檢疫局動植物檢疫中心(犬貓舍1樓),25.07615471,121.1481323,iTaiwan
觀音區,華南商業銀行觀音分行,25.01078606,121.1390381,iTaiwan
觀音區,觀音郵局,25.03512001,121.0844879,iTaiwan
觀音區,觀音草漯郵局,25.04818916,121.1432266,iTaiwan
觀音區,上海商銀觀音分行,25.04280853,121.1371078,iTaiwan
蘆竹區,關務署基隆關桃園分關南崁辦公室2樓,25.03349304,121.2999496,iTaiwan
蘆竹區,蘆竹光明郵局,25.03850555,121.2934647,iTaiwan
蘆竹區,彰化商業銀行南崁分行,25.05565643,121.279747,iTaiwan
蘆竹區,華南商業銀行南崁分行,25.05108452,121.2877808,iTaiwan
蘆竹區,蘆竹郵局,25.04575729,121.2963562,iTaiwan
蘆竹區,第一商業銀行(南崁分行),25.0461736,121.2928928,iTaiwan
蘆竹區,衛生福利部北區兒童之家,25.05643845,121.2996826,iTaiwan
蘆竹區,蘆竹大竹郵局,25.0202961,121.2644958,iTaiwan
龜山區,華南商業銀行龜山分行,24.99280167,121.3293228,iTaiwan
龜山區,龜山大崗郵局,25.00754929,121.4670639,iTaiwan
龜山區,龜山樂善郵局,25.06138992,121.366684,iTaiwan
龜山區,華南商業銀行林口分行,25.05628777,121.3633423,iTaiwan
龜山區,彰化商業銀行東林口分行,25.05758667,121.3643112,iTaiwan
龜山區,龜山民安街郵局,24.95735168,121.22509,iTaiwan
龜山區,上海商銀南崁分行,25.0441761,121.297905,iTaiwan
龜山區,台電公司林口訓練中心行政教學大樓大廳川堂,25.06130219,121.3799438,iTaiwan
龜山區,第一商業銀行(林口分行),25.0561476,121.3676295,iTaiwan
龜山區,臺灣土地銀行林口分行,25.05444527,121.3699112,iTaiwan
龜山區,龜山長庚大學郵局,25.03047943,121.3896484,iTaiwan
龍潭區,內政部警政署國道警察局第六公路警察大隊,24.836347,121.198112,iTaiwan
龍潭區,臺灣銀行龍潭分行,24.86264992,121.2151031,iTaiwan
龍潭區,龍潭石門水庫郵局,24.8345871,121.2413559,iTaiwan
龍潭區,經濟部水利署北區水資源局為民服務室,24.83503723,121.2418594,iTaiwan
龍潭區,臺灣土地銀行石門分行,24.8659153,121.2123413,iTaiwan
龍潭區,國軍桃園總醫院圖書館,24.87702179,121.2349014,iTaiwan
龍潭區,國軍桃園總醫院病房區,24.87702179,121.2349014,iTaiwan
龍潭區,國軍桃園總醫院急診室等候區,24.87702179,121.2349014,iTaiwan
龍潭區,國軍桃園總醫院門診等候區,24.87702179,121.2349014,iTaiwan
龍潭區,龍潭高原郵局,24.84620285,121.1989822,iTaiwan
龍潭區,第一商業銀行(龍潭分行),24.8530162,121.2227133,iTaiwan
龍潭區,彰化商業銀行龍潭分行,24.86304283,121.2169418,iTaiwan
龍潭區,石門水庫依山閣遊客服務中心1樓服務台,24.81093216,121.2399673,iTaiwan
楊梅區,楊梅高榮郵局,24.9563961,121.1674728,iTaiwan
楊梅區,楊梅瑞塘郵局,24.90974045,121.1765671,iTaiwan
楊梅區,楊梅幼工郵局,24.92634392,121.1744919,iTaiwan
楊梅區,楊梅大同郵局,24.90812111,121.1532516,iTaiwan
楊梅區,上海商銀楊梅分行,24.91003609,121.1472092,iTaiwan
楊梅區,楊梅光華郵局,24.90784073,121.1449432,iTaiwan
楊梅區,臺鐵局富岡站候車室,24.934427,121.083067,iTaiwan
楊梅區,臺鐵局富岡站第1月台10車位置,24.934427,121.083067,iTaiwan
楊梅區,臺鐵局埔心站第2月台行車室,24.919588,121.183502,iTaiwan
楊梅區,臺鐵局埔心站3樓補票房,24.919588,121.1813133,iTaiwan
楊梅區,彰化商業銀行埔心分行,24.91743088,121.1847382,iTaiwan
楊梅區,茶業改良場行政大樓,24.90785027,121.1851807,iTaiwan
楊梅區,楊梅埔心里郵局,24.91875076,121.1843719,iTaiwan
楊梅區,楊梅富岡郵局,24.93507957,121.0816574,iTaiwan
楊梅區,財政部北區國稅局楊梅稽徵所,24.91041374,121.1740799,iTaiwan
楊梅區,華南商業銀行楊梅分行,24.91008186,121.1453323,iTaiwan
楊梅區,臺鐵局楊梅站第1月台3車位置(行車室),24.9143296,121.1464274,iTaiwan
楊梅區,臺鐵局楊梅站4樓候車大廳(售票口),24.9143296,121.1464274,iTaiwan
楊梅區,彰化商業銀行楊梅分行,24.91166306,121.1460953,iTaiwan
楊梅區,臺灣土地銀行楊梅分行,24.91102028,121.1448288,iTaiwan
新屋區,桃園醫院新屋分院一樓門診區,24.96965599,121.106926,iTaiwan
新屋區,行政院農業委員會桃園區農業改良場農技大樓,24.9546566,121.0272446,iTaiwan
新屋區,新屋永安郵局,24.9878788,121.0413361,iTaiwan
復興區,交通部公路總局第一區養護工程處復興工務段,24.79695129,121.3628387,iTaiwan
復興區,ITW0006133東眼山國家森林遊樂區,24.83507919,121.4043655,iTaiwan
復興區,ITW0006132拉拉山自然教育中心,24.70617294,121.4290085,iTaiwan
復興區,復興郵局,24.81575966,121.351387,iTaiwan
桃園區,ITW0002059桃園療養院-1樓兒童門診候診區,24.97898102,121.2681122,iTaiwan
桃園區,桃園療養院-1樓大廳,24.97939682,121.2680511,iTaiwan
桃園區,ITW0002058桃園療養院-1樓成人門診候診區,24.97898102,121.2681122,iTaiwan
桃園區,桃園茄苳郵局,24.98743057,121.2829285,iTaiwan
桃園區,行政院勞動部勞工保險局桃園辦事處洽公櫃台,24.99236298,121.302002,iTaiwan
桃園區,臺灣銀行東桃園分行,25.0226841,121.302948,iTaiwan
桃園區,兆豐國際商銀桃興分行,24.9903183,121.3118973,iTaiwan
桃園區,桃園建國郵局,24.9853344,121.3097992,iTaiwan
桃園區,華南商業銀行桃園分行,24.9912281,121.3078918,iTaiwan
桃園區,板信商業銀行桃鶯分行,24.98608208,121.314064,iTaiwan
桃園區,臺北榮民總醫院桃園分院住院大樓二樓,25.00501442,121.3256149,iTaiwan
桃園區,臺北榮民總醫院桃園分院醫療大樓二樓,25.00501442,121.3256149,iTaiwan
桃園區,上海商銀北桃園分行,25.01540375,121.2974472,iTaiwan
桃園區,桃園永安郵局,25.00011444,121.2999191,iTaiwan
桃園區,彰化商業銀行北桃園分行,24.99777031,121.3043594,iTaiwan
桃園區,第一商業銀行桃園分行2F,24.9900589,121.3096008,iTaiwan
桃園區,臺灣桃園地方法院檢察署1樓大廳,24.99370384,121.2964249,iTaiwan
桃園區,桃園市後備指揮部,24.98125267,121.3052826,iTaiwan
桃園區,桃園福林郵局,24.98122025,121.3066559,iTaiwan
桃園區,臺灣土地銀行桃園分行,24.99177933,121.3122177,iTaiwan
桃園區,彰化商業銀行桃園分行,24.99157715,121.3121796,iTaiwan
桃園區,臺灣銀行桃園分行,24.99085617,121.3130951,iTaiwan
桃園區,臺鐵局桃園站第2月台南端(4-5車位置),24.989206,121.313545,iTaiwan
桃園區,臺鐵局桃園站第2月台北端(9-10車位置),24.989206,121.313545,iTaiwan
桃園區,臺鐵局桃園站候車大廳(付費區漂書處),24.989206,121.313545,iTaiwan
桃園區,臺鐵局桃園站第2月台南側,24.91525078,121.1460037,iTaiwan
桃園區,臺鐵局桃園站候車大廳,24.98898315,121.3145599,iTaiwan
桃園區,行政執行署桃園分署1樓等候區,25.01924706,121.2966766,iTaiwan
桃園區,臺灣土地銀行北桃園分行,25.01632309,121.297966,iTaiwan
桃園區,桃園郵局郵務管理股,24.99275589,121.311882,iTaiwan
桃園區,桃園郵局郵務科,25.02209091,121.3033447,iTaiwan
桃園區,桃園東埔郵局,25.00136948,121.3077316,iTaiwan
桃園區,臺灣土地銀行南桃園分行,24.9893589,121.2880783,iTaiwan
桃園區,中油公司桃園直銷中心,24.99230003,121.3000183,iTaiwan
桃園區,桃園醫院-門、急診候診區,24.97808075,121.2689514,iTaiwan
桃園區,桃園醫院-二樓門診區,24.97751236,121.2679367,iTaiwan
桃園區,桃園醫院-綜合大樓一樓,24.97784233,121.2693176,iTaiwan
桃園區,桃園醫院-一樓門診區,24.97740555,121.2680817,iTaiwan
桃園區,華南商業銀行北桃園分行,25.01168442,121.2976837,iTaiwan
桃園區,桃園大業郵局,25.01299858,121.3122864,iTaiwan
桃園區,行政院農業委員會農糧署北區分署,24.98840714,121.3093948,iTaiwan
桃園區,上海商銀桃園分行,24.99334908,121.3057175,iTaiwan
桃園區,第一商業銀行(北桃分行),25.0001564,121.3102188,iTaiwan
桃園區,ITW0005706財政部北區國稅局第一會議室,25.00367355,121.3216858,iTaiwan
桃園區,財政部北區國稅局桃園分局1樓大廳,25.00367355,121.3216858,iTaiwan
桃園區,國防部桃園福利站服務台,25.00502586,121.3207016,iTaiwan
桃園區,ITW0005707財政部北區國稅局桃園分局3樓,25.0036602,121.321106,iTaiwan
平鎮區,華南商業銀行平鎮分行,24.94051933,121.2152176,iTaiwan
平鎮區,臺灣銀行平鎮分行,24.94474602,121.2091751,iTaiwan
平鎮區,平鎮南勢郵局,24.91626549,121.210022,iTaiwan
平鎮區,平鎮廣明郵局,24.95384979,121.2134705,iTaiwan
平鎮區,平鎮金陵郵局,24.92470741,121.2280807,iTaiwan
平鎮區,平鎮北勢郵局,24.94195938,121.223175,iTaiwan
平鎮區,彰化商業銀行新明分行,24.95593643,121.2128677,iTaiwan
平鎮區,平鎮山仔頂郵局,24.8973484,121.2107849,iTaiwan
中壢區,第一商業銀行(平鎮分行),24.9594522,121.2071933,iTaiwan
中壢區,中壢環北郵局,24.96622467,121.2262421,iTaiwan
中壢區,中壢龍東路郵局,24.94049835,121.2514114,iTaiwan
中壢區,標準檢驗局新竹分局桃園辦事處商檢/計量業務民眾洽公區,24.95083618,121.2221298,iTaiwan
中壢區,行政院農業委員會動植物防疫檢疫局新竹分局(桃園檢疫站申報檢疫櫃檯),24.95145416,121.2223434,iTaiwan
中壢區,中壢東興郵局,24.94800949,121.22612,iTaiwan
中壢區,中壢頂壢郵局,24.96928024,121.2611084,iTaiwan
中壢區,ITW0005168兆豐國際商業銀行中壢分行2樓,24.95767593,121.2250137,iTaiwan
中壢區,第一商業銀行(內壢分行),24.974554,121.257304,iTaiwan
中壢區,中壢內壢郵局,24.97442055,121.2557068,iTaiwan
中壢區,彰化商業銀行北中壢分行,24.97641182,121.2549973,iTaiwan
中壢區,臺灣銀行中壢分行,24.95475769,121.2221222,iTaiwan
中壢區,上海商銀延平分行,24.95549202,121.2230377,iTaiwan
中壢區,國防部內壢福利站服務台,24.96715736,121.2527008,iTaiwan
中壢區,行政院環境保護署環境保護人員訓練所服務台,24.96096039,121.1927795,iTaiwan
中壢區,行政院環保署環境檢驗所1F、2F、4F,24.96130943,121.1926041,iTaiwan
中壢區,行政院環保署環境檢驗所1F、3F、6F,24.96130943,121.1926422,iTaiwan
中壢區,高速公路局北區工程處中壢工務段,25.00090218,121.2527084,iTaiwan
中壢區,交通部公路總局第一區養護工程處中壢工務段,24.96539307,121.2393341,iTaiwan
中壢區,上海商銀中壢分行,24.95990562,121.2236023,iTaiwan
中壢區,臺鐵局中壢站售票大廳,24.96245956,121.223114,iTaiwan
中壢區,臺鐵局中壢站第1月台總務室外,24.95364952,121.2260895,iTaiwan
中壢區,臺鐵局中壢站第3月台5車位置,24.95353889,121.226265,iTaiwan
中壢區,臺鐵局中壢站第3月台2車位置,24.95343208,121.2258224,iTaiwan
中壢區,臺鐵局中壢站第1月台5車位置,24.94042587,121.2514038,iTaiwan
中壢區,中壢大崙郵局,24.98839951,121.1803207,iTaiwan
中壢區,彰化商業銀行中壢分行,24.95449066,121.2231064,iTaiwan
中壢區,財政部北區國稅局中壢稽徵所第2辦公室,24.9575634,121.2229767,iTaiwan
中壢區,財政部北區國稅局中壢稽徵所第1辦公室,24.95680809,121.2250061,iTaiwan
中壢區,第一商業銀行(西壢分行),24.95815468,121.2175903,iTaiwan
中壢區,中壢志廣郵局,24.96162033,121.2117996,iTaiwan
中壢區,臺灣土地銀行中壢分行,24.95668602,121.223587,iTaiwan
中壢區,中央健康保險署-北區業務組1樓聯合服務中心,24.93736839,121.254631,iTaiwan
中壢區,國軍退除役官兵輔導委員會桃園縣榮民服務處一樓大廳,24.94901466,121.2439346,iTaiwan
大溪區,大溪員樹林郵局,24.88580513,121.2702484,iTaiwan
大溪區,經濟部水利署北區水資源局環翠樓遊客服務中心,24.81178093,121.2475815,iTaiwan
大溪區,華南商業銀行大溪分行,24.88218117,121.2891922,iTaiwan
大溪區,大溪郵局,24.87942314,121.2882462,iTaiwan
大溪區,第一商業銀行(大溪分行),24.8815937,121.2882462,iTaiwan
大溪區,經濟部水利署北區水資源局石門水庫環境教育館,24.818086,121.252459,iTaiwan
大溪區,財政部北區國稅局大溪稽徵所,24.90473557,121.2843857,iTaiwan
大溪區,大溪南興郵局,24.90339661,121.2670593,iTaiwan
大園區,第一商業銀行(大園分行),25.06548882,121.1997223,iTaiwan
大園區,臺北關(永儲快遞貨物專區),25.10854912,121.249321,iTaiwan
大園區,臺北關(遠雄快遞貨物專區),25.03806114,121.2805939,iTaiwan
大園區,大園埔心街郵局,25.05328751,121.2246017,iTaiwan
大園區,桃園機場檢疫櫃台第二航廈(出境),25.07762909,121.2326889,iTaiwan
大園區,臺北關(榮儲快遞貨物專區),25.11587334,121.2349319,iTaiwan
大園區,行政院農業委員會動植物防疫檢疫局新竹分局(華儲機放倉申報檢疫櫃檯),25.07584572,121.2581787,iTaiwan
大園區,內政部警政署航空警察局,25.08551407,121.243042,iTaiwan
大園區,內政部警政署航空警察局刑事警察大隊,25.08551407,121.243042,iTaiwan
大園區,內政部警政署航空警察局安全檢查大隊,25.08551407,121.243042,iTaiwan
大園區,內政部警政署航空警察局保安警察大隊,25.08551407,121.243042,iTaiwan
大園區,內政部警政署航空警察局北側辦公室,25.08492661,121.2432098,iTaiwan
大園區,內政部警政署航空警察局禮堂,25.08492661,121.2432098,iTaiwan
大園區,行政院農業委員會動植物防疫檢疫局新竹分局(辦公大樓1F服務櫃檯),25.09174156,121.2334824,iTaiwan
大園區,關務署臺北關大廳大禮堂,25.08574486,121.2437363,iTaiwan
大園區,關務署臺北關,25.08586884,121.2439728,iTaiwan
大園區,大園航勤北路郵局,25.08687019,121.2407913,iTaiwan
大園區,臺北關(華儲快遞貨物專區),25.0380764,121.2805862,iTaiwan
大園區,台灣桃園國際機場郵局,24.97241783,121.302597,iTaiwan
大園區,桃園機場檢疫櫃台第二航廈(入境),25.07634544,121.2327194,iTaiwan
大園區,桃園國際機場第二航廈巡迴巴士站,25.07728958,121.2322235,iTaiwan
大園區,桃園國際機場第二航廈出境大廳三樓南側,25.07728958,121.2322235,iTaiwan
大園區,桃園國際機場第二航廈出境大廳三樓北側,25.07728958,121.2322235,iTaiwan
大園區,桃園國際機場第二航廈接機大廳一樓南側,25.07728958,121.2322235,iTaiwan
大園區,桃園機場檢疫櫃台第一航廈(出境),25.07634544,121.2327194,iTaiwan
大園區,桃園國際機場第一航廈出境大廳一樓南側,25.08169174,121.2379532,iTaiwan
大園區,桃園機場檢疫櫃台第一航廈(入境),25.077012,121.231976,iTaiwan
大園區,桃園國際機場第一航廈出境大廳三樓北側,25.08169174,121.2379532,iTaiwan
大園區,桃園國際機場第一航廈出境大廳一樓北側,25.08169174,121.2379532,iTaiwan
大園區,桃園國際機場第一航廈巴士站南側,25.08169174,121.2379532,iTaiwan
大園區,桃園國際機場第一航廈巴士站北側,25.08169174,121.2379532,iTaiwan
大園區,桃園國際機場第一航廈接機大廳南側,25.08169174,121.2379532,iTaiwan
大園區,桃園國際機場第一航廈接機大廳北側,25.08169174,121.2379532,iTaiwan
大園區,華南商業銀行大園分行,25.06250954,121.2008514,iTaiwan
大園區,大園郵局,25.06590462,121.1977692,iTaiwan
大園區,大園果林郵局,25.075168,121.258863,iTaiwan
八德區,國軍退除役官兵輔導委員會桃園榮譽國民之家警衛室(榮民報到處),24.94110489,121.3084412,iTaiwan
八德區,國軍退除役官兵輔導委員會八德榮譽國民之家行政大樓一樓,24.938097,121.3044815,iTaiwan
八德區,八德郵局,24.93307877,121.2857056,iTaiwan
八德區,華南商業銀行八德分行,24.94939613,121.2981491,iTaiwan
八德區,八德麻園郵局,24.94973755,121.2975006,iTaiwan
八德區,彰化商業銀行八德分行,24.95445251,121.298851,iTaiwan
八德區,第一商業銀行(大湳分行),24.95992851,121.2991867,iTaiwan
八德區,八德大湳郵局,24.98781586,121.2893295,iTaiwan
八德區,臺灣土地銀行八德分行,24.96570015,121.3001633,iTaiwan
八德區,關務署基隆關桃園分關貿聯辦公室2樓,24.97429276,121.2676163,iTaiwan
八德區,兆豐國際商銀八德分行,24.96418953,121.2994308,iTaiwan
龍潭區,龍潭郵局,24.86671066,121.2171402,iTaiwan
楊梅區,臺鐵局楊梅站候車室,24.91404915,121.1460724,iTaiwan
桃園區,桃園府前郵局,24.99230194,121.3004913,iTaiwan
桃園區,桃園南門郵局,24.99239922,121.3047867,iTaiwan
中壢區,中壢普仁郵局,24.95397568,121.2372284,iTaiwan
蘆竹區,蘆竹山腳郵局,25.08449173,121.2862625,iTaiwan
龜山區,龜山郵局,24.99321175,121.3345947,iTaiwan
龍潭區,龍潭中興郵局,24.87436104,121.2340546,iTaiwan
楊梅區,楊梅郵局,24.91033936,121.1476669,iTaiwan
桃園區,桃園慈文郵局,25.02190971,121.3034058,iTaiwan
桃園區,桃園成功路郵局2樓,24.99208069,121.3112488,iTaiwan
桃園區,公路總局新竹區監理所桃園監理站,24.97897911,121.3030167,iTaiwan
中壢區,中壢華勛郵局,24.95525551,121.2646408,iTaiwan
中壢區,臺鐵局中壢站後站大廳,24.95276833,121.2249146,iTaiwan
中壢區,中壢建國路郵局,24.95558357,121.2250061,iTaiwan
中壢區,公路總局新竹區監理所中壢監理站,24.95974159,121.2242889,iTaiwan
中壢區,高速公路局北區工程處中壢服務區服務台,25.00435448,121.251709,iTaiwan
中壢區,臺鐵局內壢站車站候車室,24.97275543,121.2583084,iTaiwan
中壢區,中原大學郵局,24.95273972,121.2280426,iTaiwan
中壢區,中央大學郵局,24.96859932,121.2020264,iTaiwan
大園區,桃園國際機場第二航廈客運巴士站,25.077012,121.231976,iTaiwan
大園區,桃園國際機場第二航廈接機大廳一樓北側,25.07728958,121.2322235,iTaiwan
中壢區,桃園市立圖書館龍岡分館2_320桃園市中壢區台貿一街100號,24.937768,121.255921,iTaiwan/iTaoyuan
中壢區,桃園市政府環境清潔稽查大隊中壢區中隊辦公室,24.911914,121.144868,iTaiwan/iTaoyuan
楊梅區,桃園市政府環境清潔稽查大隊楊梅區中隊員本區域衛生掩埋場行政大樓辦公室,24.911914,121.144868,iTaiwan/iTaoyuan
楊梅區,桃園市政府環境清潔稽查大隊楊梅區中隊員本區域衛生掩埋場車管中心,24.945339,121.107446,iTaiwan/iTaoyuan
桃園區,桃園市政府住宅發展處,24.999287,121.297443,iTaiwan/iTaoyuan
平鎮區,桃園市立圖書館平鎮分館,24.939864,121.217669,iTaiwan/iTaoyuan
桃園區,桃園市政府環境清潔稽查大隊106辦公室_330桃園市桃園區縣府路106號5樓,24.994343,121.302712,iTaiwan/iTaoyuan
桃園區,桃園市桃園區公所,24.99403954,121.3016739,iTaiwan/iTaoyuan
中壢區,仁美辦公室,24.94058037,121.2508926,iTaiwan/iTaoyuan
觀音區,桃園市觀音區衛生所,25.02801514,121.083107,iTaiwan/iTaoyuan
觀音區,桃園市觀音區公所,25.02832794,121.0833282,iTaiwan/iTaoyuan
觀音區,桃園市觀音區公所,25.02832794,121.0833282,iTaiwan/iTaoyuan
觀音區,桃園市觀音區公所,25.02832794,121.0833282,iTaiwan/iTaoyuan
觀音區,桃園市觀音區戶政事務所,25.02817154,121.0830307,iTaiwan/iTaoyuan
觀音區,桃園市政府消防局觀音分隊,25.03063011,121.0851746,iTaiwan/iTaoyuan
觀音區,桃園市立圖書館新坡分館,25.01293755,121.1370544,iTaiwan/iTaoyuan
觀音區,桃園市立圖書館觀音分館,25.034859,121.083221,iTaiwan/iTaoyuan
觀音區,桃園客運觀音站,25.03798103,121.0812988,iTaiwan/iTaoyuan
觀音區,桃園市政府消防局新坡分隊,25.01255417,121.1363144,iTaiwan/iTaoyuan
觀音區,桃園市政府消防局草漯分隊,25.05284882,121.1181946,iTaiwan/iTaoyuan
觀音區,桃園市立圖書館草漯分館,25.04803276,121.1445007,iTaiwan/iTaoyuan
觀音區,桃園市桃科環科大潭產業園區聯合服務中心,25.0250473,121.0579681,iTaiwan/iTaoyuan
蘆竹區,桃園市政府消防局蘆竹分隊,25.05472374,121.2891006,iTaiwan/iTaoyuan
蘆竹區,桃園捷運藍線先導公車智慧站牌-居安新村(往中壢),25.03800774,121.2806702,iTaiwan/iTaoyuan
蘆竹區,桃園捷運紅線先導公車智慧站牌-中壢工業區,25.03802681,121.2806473,iTaiwan/iTaoyuan
蘆竹區,蘆竹區兒三環保公園南竹路五段224巷45弄8號燈桿右前,25.02634048,121.2591934,iTaiwan/iTaoyuan
蘆竹區,龜山區楓樹公園楓樹一街21號對面中華電信自備桿左前,25.04436302,121.295639,iTaiwan/iTaoyuan
蘆竹區,桃園永康公園永康街97號對面號誌桿右前方,24.9726696,121.3025589,iTaiwan/iTaoyuan
蘆竹區,中壢元生公園文化路134號號誌桿左前方,24.9726696,121.3025665,iTaiwan/iTaoyuan
蘆竹區,桃園市政府警察局大園分局觀音分駐所,25.03799438,121.280571,iTaiwan/iTaoyuan
蘆竹區,桃園市政府警察局蘆竹分局,25.04738235,121.2931824,iTaiwan/iTaoyuan
蘆竹區,桃園市蘆竹區公所3F,25.04713821,121.2952271,iTaiwan/iTaoyuan
蘆竹區,桃園市蘆竹區公所2樓,25.04713821,121.2952271,iTaiwan/iTaoyuan
蘆竹區,桃園市蘆竹區公所1F,25.04713821,121.2952271,iTaiwan/iTaoyuan
蘆竹區,蘆竹區圖書館南崁分館,25.03799248,121.2806702,iTaiwan/iTaoyuan
蘆竹區,桃園捷運綠線先導公車智慧站牌-蘆竹區公所(往桃園),25.0463562,121.2946548,iTaiwan/iTaoyuan
蘆竹區,桃園區莊敬公園同安街609號對面燈桿左前,24.92214775,121.2498474,iTaiwan/iTaoyuan
蘆竹區,桃園市蘆竹區衛生所,25.06314468,121.2804031,iTaiwan/iTaoyuan
蘆竹區,桃園市蘆竹區戶政事務所,25.0380249,121.2806549,iTaiwan/iTaoyuan
蘆竹區,桃園市蘆竹地政事務所,25.0380249,121.2806549,iTaiwan/iTaoyuan
蘆竹區,中壢長樂公園長樂街83巷8號前燈桿右前方,25.03800583,121.2806473,iTaiwan/iTaoyuan
蘆竹區,蘆竹區光明河濱公園光明路二段、光復路144巷口號誌桿左前,25.04680634,121.0468063,iTaiwan/iTaoyuan
蘆竹區,蘆竹區光明河濱公園光明路二段、光復路144巷口號誌桿右前,25.04680634,121.2879944,iTaiwan/iTaoyuan
蘆竹區,大園竹圍漁港商圈漁業大樓前右側指標桿,24.9591198,121.2977829,iTaiwan/iTaoyuan
蘆竹區,大園竹圍漁港商圈漁業大樓前右側指標桿,25.0474472,121.2921982,iTaiwan/iTaoyuan
蘆竹區,中壢區五福商圈五常街22巷9號路燈南向,25.05171204,121.2959824,iTaiwan/iTaoyuan
蘆竹區,桃園市蘆竹區公所(婦幼館),25.05036926,121.2933655,iTaiwan/iTaoyuan
蘆竹區,桃園三民公園三民路一段386號燈桿左前方,24.92214775,121.2498474,iTaiwan/iTaoyuan
蘆竹區,桃園市立圖書館蘆竹分館,25.05320168,121.2963867,iTaiwan/iTaoyuan
蘆竹區,桃園市立圖書館蘆竹分館四樓,25.03798485,121.2807083,iTaiwan/iTaoyuan
蘆竹區,桃園市政府消防局山腳分隊,25.08472824,121.2934647,iTaiwan/iTaoyuan
蘆竹區,蘆竹區圖書館山腳分館,25.08304214,121.2880783,iTaiwan/iTaoyuan
蘆竹區,桃園客運高?線智慧站牌-大竹(往高?),25.02409363,121.2597809,iTaiwan/iTaoyuan
蘆竹區,桃園客運高?線智慧站牌-大竹(往桃園),25.02409363,121.2597809,iTaiwan/iTaoyuan
蘆竹區,桃園市政府消防局大竹分隊,25.01901245,121.2610168,iTaiwan/iTaoyuan
蘆竹區,桃園市立圖書館大竹分館,25.0071373,121.2947464,iTaiwan/iTaoyuan
龜山區,桃園市政府消防局龜山分隊,24.99902916,121.3462677,iTaiwan/iTaoyuan
龜山區,桃園捷運棕線先導公車智慧站牌-陸光二村(往迴龍),24.993946,121.334652,iTaiwan/iTaoyuan
龜山區,桃園捷運棕線先導公車智慧站牌-陸光二村(往桃園),24.99452782,121.3344803,iTaiwan/iTaoyuan
龜山區,桃園捷運棕線先導公車智慧站牌-龜山(往桃園),24.995046,121.336289,iTaiwan/iTaoyuan
龜山區,桃園東溪綠園中山東路2巷27號電信桿,25.00494957,121.3451004,iTaiwan/iTaoyuan
龜山區,桃園中正藝文特區商圈大興西路2段105號前燈桿,25.00492477,121.344986,iTaiwan/iTaoyuan
龜山區,桃園A8藝文中心,25.05986977,121.3698959,iTaiwan/iTaoyuan
龜山區,統聯客運林口站,25.05901337,121.3666534,iTaiwan/iTaoyuan
龜山區,桃園市立圖書館山德分館,24.99245453,121.3270111,iTaiwan/iTaoyuan
龜山區,桃園市龜山區戶政事務所,24.89999962,121.3000031,iTaiwan/iTaoyuan
龜山區,桃園市立圖書館龜山分館4F,24.97237396,121.3026428,iTaiwan/iTaoyuan
龜山區,桃園市立圖書館龜山分館,24.99189949,121.3386383,iTaiwan/iTaoyuan
龜山區,桃園市政府警察局龜山分局,24.99126816,121.3381042,iTaiwan/iTaoyuan
龜山區,ITWH000853桃園市龜山地政事務所,24.99163246,121.3382721,iTaiwan/iTaoyuan
龜山區,桃園市龜山區衛生所,24.99170876,121.3386612,iTaiwan/iTaoyuan
龜山區,桃園市立圖書館大崗分館,25.05169106,121.3579712,iTaiwan/iTaoyuan
龜山區,中壢文化公園吉林路57號監視器桿右前方,24.9915905,121.3428955,iTaiwan/iTaoyuan
龜山區,復興角板山商圈中正路168-1號前燈桿,24.9916172,121.34272,iTaiwan/iTaoyuan
龍潭區,龍潭區龍潭運動公園公園路、健行路口號誌桿右,24.966396,121.263654,iTaiwan/iTaoyuan
龍潭區,龍元宮商圈龍華路96號前燈桿,24.86636925,121.2150574,iTaiwan/iTaoyuan
龍潭區,龍潭區圖書館青少年學習中心,24.86401176,121.2160873,iTaiwan/iTaoyuan
龍潭區,桃園朝陽公園朝陽街120號前燈桿右前方,24.86488533,121.2124329,iTaiwan/iTaoyuan
龍潭區,桃園文昌公園文昌廟前燈桿右前方,24.86491776,121.2126007,iTaiwan/iTaoyuan
龍潭區,桃園市政府消防局高平分隊,24.8417778,121.1837845,iTaiwan/iTaoyuan
龍潭區,桃園文昌公園文昌廟前燈桿左前方,24.86413956,121.2125778,iTaiwan/iTaoyuan
龍潭區,大溪區埔頂公園公園路、埔仁路公廁前中華電信自備桿右前,24.99300194,121.3103714,iTaiwan/iTaoyuan
龍潭區,石門山登山口廣場,24.81779289,121.239624,iTaiwan/iTaoyuan
龍潭區,龍元宮商圈北龍路與東龍路口土地廟前號誌桿左側,24.865778,121.213542,iTaiwan/iTaoyuan
龍潭區,龍元宮商圈北龍路與東龍路口土地廟前號誌桿右側,24.865778,121.213542,iTaiwan/iTaoyuan
龍潭區,龍潭區龍潭運動公園北龍路、公園路口號誌桿左,24.86660767,121.2190781,iTaiwan/iTaoyuan
龍潭區,龍潭區龍潭運動公園北龍路、公園路口號誌桿右,24.966367,121.263617,iTaiwan/iTaoyuan
龍潭區,新竹客運龍潭站,24.8649807,121.2110519,iTaiwan/iTaoyuan
龍潭區,桃園客運龍潭站,24.86737061,121.2157288,iTaiwan/iTaoyuan
龍潭區,龍潭大池公園(老人會館),24.86500931,121.2095032,iTaiwan/iTaoyuan
龍潭區,龍潭大池公園(管理處),24.862750,121.208714,iTaiwan/iTaoyuan
龍潭區,桃園市政府消防局龍潭分隊,24.86443901,121.2171021,iTaiwan/iTaoyuan
龍潭區,桃園市龍潭區戶政事務所,24.86411667,121.2164001,iTaiwan/iTaoyuan
龍潭區,龍潭區公所(1F),24.86411667,121.2164001,iTaiwan/iTaoyuan
龍潭區,龍潭區公所(3F),24.86411667,121.2164001,iTaiwan/iTaoyuan
龍潭區,桃園市立圖書館龍潭分館C棟3樓熱點,25.00497627,121.0475922,iTaiwan/iTaoyuan
龍潭區,桃園市立圖書館龍潭分館C棟2樓熱點,25.07454109,121.5745087,iTaiwan/iTaoyuan
龍潭區,桃園市立圖書館龍潭分館B棟熱點,24.871866,121.222035,iTaiwan/iTaoyuan
龍潭區,桃園市立圖書館龍潭分館A棟4樓熱點,24.90236855,121.213089,iTaiwan/iTaoyuan
龍潭區,桃園市立圖書館龍潭分館A棟3樓2號熱點,25.00762939,121.0511246,iTaiwan/iTaoyuan
龍潭區,桃園市立圖書館龍潭分館A棟3樓1號熱點,24.90236092,121.2131348,iTaiwan/iTaoyuan
龍潭區,桃園市立圖書館龍潭分館A棟2樓1號熱點,24.90282059,121.2125854,iTaiwan/iTaoyuan
龍潭區,桃園市立圖書館龍潭分館A棟2樓2號熱點,24.90227509,121.2130051,iTaiwan/iTaoyuan
龍潭區,桃園市立圖書館龍潭分館A棟1樓1號熱點,24.90266609,121.2127075,iTaiwan/iTaoyuan
龍潭區,桃園市立圖書館龍潭分館A棟1樓3號熱點,24.90252495,121.2129059,iTaiwan/iTaoyuan
龍潭區,桃園市立圖書館龍潭分館A棟1樓2號熱點,24.90245056,121.2129517,iTaiwan/iTaoyuan
龍潭區,桃園市政府客家事務局洽公場所,24.84576416,121.2342377,iTaiwan/iTaoyuan
龍潭區,龍潭區圖書館(3F),24.86411667,121.2164001,iTaiwan/iTaoyuan
龍潭區,龍潭區圖書館(1F),24.86411667,121.2164001,iTaiwan/iTaoyuan
龍潭區,桃園市龍潭區衛生所,24.86405373,121.2164307,iTaiwan/iTaoyuan
龍潭區,桃園客運701線智慧站牌-第二市場(往長庚),24.864759,121.217169,iTaiwan/iTaoyuan
龍潭區,桃園客運701線智慧站牌-第二市場(往龍潭),24.864477,121.217102,iTaiwan/iTaoyuan
龍潭區,龍潭運動公園,24.86416245,121.2191086,iTaiwan/iTaoyuan
龍潭區,桃園市政府警察局龍潭分局,24.86852074,121.2075424,iTaiwan/iTaoyuan
楊梅區,新竹客運楊梅站,24.91341209,121.1484909,iTaiwan/iTaoyuan
楊梅區,楊梅區楊明公園金山街、中山北路一段390巷巷口燈桿左前,24.912136,121.207248,iTaiwan/iTaoyuan
楊梅區,桃園市政府消防局楊梅分隊,24.91062737,121.1525345,iTaiwan/iTaoyuan
楊梅區,桃園市立圖書館紅梅分館3樓,25.00553513,121.0459137,iTaiwan/iTaoyuan
楊梅區,桃園市立圖書館紅梅分館2樓,24.90519333,121.1453705,iTaiwan/iTaoyuan
楊梅區,桃園市楊梅地政事務所,24.89680672,121.1495438,iTaiwan/iTaoyuan
楊梅區,桃園市楊梅區戶政事務所洽公區,24.89697456,121.1497955,iTaiwan/iTaoyuan
楊梅區,桃園市楊梅區衛生所,24.897001,121.149737,iTaiwan/iTaoyuan
楊梅區,桃園市政府消防局富岡分隊,24.93622589,121.0890121,iTaiwan/iTaoyuan
楊梅區,桃園市楊梅區圖書館本館前棟1樓,24.90839195,121.1452179,iTaiwan/iTaoyuan
楊梅區,桃園市立圖書館埔心分館,24.91497803,121.1864471,iTaiwan/iTaoyuan
楊梅區,桃園市立圖書館富岡分館2樓,24.934724,121.081162,iTaiwan/iTaoyuan
楊梅區,桃園市立圖書館富岡分館1樓,24.934724,121.081162,iTaiwan/iTaoyuan
楊梅區,桃園市政府地方稅務局楊梅分局,24.90651894,121.142746,iTaiwan/iTaoyuan
楊梅區,桃園市政府警察局楊梅分局,24.90688324,121.1464386,iTaiwan/iTaoyuan
楊梅區,楊梅區公所活動中心,24.90762329,121.1459732,iTaiwan/iTaoyuan
楊梅區,楊梅區公所,24.90753746,121.1462097,iTaiwan/iTaoyuan
新屋區,桃園市政府消防局永安分隊,24.97705269,121.2592239,iTaiwan/iTaoyuan
新屋區,桃園市立圖書館新屋分館,24.97074318,121.1027679,iTaiwan/iTaoyuan
新屋區,桃園市政府消防局新屋分隊,24.97651291,121.1063766,iTaiwan/iTaoyuan
新屋區,桃園客運新屋站,24.97279739,121.1025009,iTaiwan/iTaoyuan
新屋區,新屋區公所,24.94041824,121.2513885,iTaiwan/iTaoyuan
新屋區,桃園市新屋區戶政事務所,24.94041824,121.2513885,iTaiwan/iTaoyuan
新屋區,桃園市政府警察局楊梅分局新屋分駐所,24.97252083,121.1064377,iTaiwan/iTaoyuan
新屋區,桃園市政府警察局楊梅分局新屋分駐所,24.97252083,121.1064377,iTaiwan/iTaoyuan
新屋區,桃園市新屋區衛生所,24.97251129,121.1064758,iTaiwan/iTaoyuan
新屋區,永安漁港觀光漁市,24.987789,121.015704,iTaiwan/iTaoyuan
新屋區,永安漁港觀光漁市,24.98802948,121.0148849,iTaiwan/iTaoyuan
新屋區,中壢區漁會,24.988567,121.018118,iTaiwan/iTaoyuan
復興區,三坑老街商店街,24.80150032,121.3673401,iTaiwan/iTaoyuan
復興區,中壢甲蟲兒童公園文成南街13巷5號電信桿右前方,24.80160522,121.3673172,iTaiwan/iTaoyuan
復興區,小烏來風景特定區-寰宇平台,24.73077011,121.3751221,iTaiwan/iTaoyuan
復興區,小烏來風景特定區-水域區,24.79077148,121.3751221,iTaiwan/iTaoyuan
復興區,小烏來風景特定區-台灣好行小烏來線候車區,24.79077148,121.3751221,iTaiwan/iTaoyuan
復興區,小烏來風景特定區-天空步道,24.79114151,121.3761902,iTaiwan/iTaoyuan
復興區,小烏來風景特定區-地質館,24.79072762,121.3779678,iTaiwan/iTaoyuan
復興區,桃園市政府消防局巴陵分隊,24.686203,121.3989029,iTaiwan/iTaoyuan
復興區,拉拉山風景特定區,24.6841774,121.3967285,iTaiwan/iTaoyuan
復興區,拉拉山風景特定區-上巴陵停車場右側涼亭,24.68681717,121.4079361,iTaiwan/iTaoyuan
復興區,拉拉山風景特定區-上巴陵停車場入口,24.68989182,121.4054718,iTaiwan/iTaoyuan
復興區,ITWH001223拉拉山風景特定區-上巴陵觀景台,24.68608856,121.3988571,iTaiwan/iTaoyuan
復興區,拉拉山風景特定區-遊客中心前廣場,24.67967415,121.3840485,iTaiwan/iTaoyuan
復興區,桃園區東埔公園正康二街233號對面燈桿左前,24.82990265,121.3321686,iTaiwan/iTaoyuan
復興區,中壢文化公園吉林路57號監視器桿左前方,24.81914139,121.3486252,iTaiwan/iTaoyuan
復興區,桃園捷運綠線先導公車智慧站牌-統領百貨公司,24.81685257,121.3513794,iTaiwan/iTaoyuan
復興區,桃園市政府警察局大溪分局復興分駐所,24.81413269,121.3509903,iTaiwan/iTaoyuan
復興區,桃園市復興區衛生所,24.81507111,121.3509064,iTaiwan/iTaoyuan
復興區,桃園市復興區公所,24.81474686,121.3512573,iTaiwan/iTaoyuan
復興區,桃園市復興區戶政事務所,24.81912422,121.3508987,iTaiwan/iTaoyuan
復興區,桃園市復興區圖書館,24.81839371,121.3512878,iTaiwan/iTaoyuan
復興區,角板山行館,24.81632996,121.348938,iTaiwan/iTaoyuan
復興區,桃園市政府消防局復興分隊,24.814188,121.3506546,iTaiwan/iTaoyuan
復興區,復興角板山商圈中正路139號對面燈桿右側,24.8164978,121.3509445,iTaiwan/iTaoyuan
復興區,復興角板山商圈中正路139號對面燈桿左側,24.81445313,121.3503952,iTaiwan/iTaoyuan
桃園區,石門山登山口步道,25.011343,121.3127823,iTaiwan/iTaoyuan
桃園區,中壢五福商圈志成路71號路燈,25.01428986,121.3163147,iTaiwan/iTaoyuan
桃園區,桃園市政府衛生局,24.99327278,121.300293,iTaiwan/iTaoyuan
桃園區,桃園市政府衛生局,24.99341011,121.3003693,iTaiwan/iTaoyuan
桃園區,桃園市桃園勞工育樂中心,24.99343491,121.300087,iTaiwan/iTaoyuan
桃園區,桃園市政府警察局後勤科民眾洽公區,24.99341011,121.3018417,iTaiwan/iTaoyuan
桃園區,桃園市政府警察局,24.99341011,121.3018417,iTaiwan/iTaoyuan
桃園區,ITWH000862桃園市政府文化局5樓自修室-2,24.99385071,121.30056,iTaiwan/iTaoyuan
桃園區,ITWH000861桃園市政府文化局5樓自修室-1,24.99385071,121.30056,iTaiwan/iTaoyuan
桃園區,桃園市政府文化局,24.99388695,121.2999954,iTaiwan/iTaoyuan
桃園區,桃園區市政府免費電動巴士停靠站,24.96063423,121.2177887,iTaiwan/iTaoyuan
桃園區,桃園區市政府廣場,24.96063423,121.2177887,iTaiwan/iTaoyuan
桃園區,桃園市政府環境保護局11F,24.99338341,121.3009567,iTaiwan/iTaoyuan
桃園區,桃園市政府環境保護局10F,24.99333191,121.3010025,iTaiwan/iTaoyuan
桃園區,桃園市政府B1樓前棟餐廳,24.99304581,121.3009567,iTaiwan/iTaoyuan
桃園區,桃園市政府B2樓走廊民眾洽公區,24.99304581,121.3009567,iTaiwan/iTaoyuan
桃園區,桃園市政府B2樓民眾洽公區,24.99304581,121.3009567,iTaiwan/iTaoyuan
桃園區,桃園市政府9樓走廊民眾洽公區,24.99304581,121.3009567,iTaiwan/iTaoyuan
桃園區,桃園市政府8樓前棟左側民眾洽公區1,24.99304581,121.3009567,iTaiwan/iTaoyuan
桃園區,桃園市政府8樓走廊民眾洽公區,24.99304581,121.3009567,iTaiwan/iTaoyuan
桃園區,桃園市政府8樓前棟右側民眾洽公區1,24.99304581,121.3009567,iTaiwan/iTaoyuan
桃園區,桃園市政府7樓前棟左側民眾洽公區1,24.99304581,121.3009567,iTaiwan/iTaoyuan
桃園區,桃園市政府7樓走廊民眾洽公區,24.99304581,121.3009567,iTaiwan/iTaoyuan
桃園區,桃園市政府6樓前棟前側民眾洽公區,24.99304581,121.3009567,iTaiwan/iTaoyuan
桃園區,桃園市政府6樓前棟左側民眾洽公區1,24.99304581,121.3009567,iTaiwan/iTaoyuan
桃園區,桃園市政府6樓走廊民眾洽公區,24.99304581,121.3009567,iTaiwan/iTaoyuan
桃園區,桃園市政府5樓前棟前側民眾洽公區,24.99304581,121.3009567,iTaiwan/iTaoyuan
桃園區,桃園市政府5樓前棟左側民眾洽公區1,24.99304581,121.3009567,iTaiwan/iTaoyuan
桃園區,桃園市政府5樓走廊民眾洽公區,24.99304581,121.3009567,iTaiwan/iTaoyuan
桃園區,桃園市政府4樓前棟左側民眾洽公區1,24.99304581,121.3009567,iTaiwan/iTaoyuan
桃園區,桃園市政府4樓走廊民眾洽公區,24.99304581,121.3009567,iTaiwan/iTaoyuan
桃園區,桃園市政府3樓前棟左側民眾洽公區1,24.99304581,121.3009567,iTaiwan/iTaoyuan
桃園區,桃園市政府3樓走廊民眾洽公區,24.99304581,121.3009567,iTaiwan/iTaoyuan
桃園區,桃園市政府2樓走廊民眾洽公區,24.99304581,121.3009567,iTaiwan/iTaoyuan
桃園區,桃園市政府2樓後棟右側民眾洽公區,24.99304581,121.3009567,iTaiwan/iTaoyuan
桃園區,桃園市政府1樓後棟,24.99304581,121.3009567,iTaiwan/iTaoyuan
桃園區,桃園市政府1樓前棟,24.99304581,121.3009567,iTaiwan/iTaoyuan
桃園區,桃園市政府1樓前棟右側民眾洽公區,24.99304581,121.3009567,iTaiwan/iTaoyuan
桃園區,桃園市政府1樓前棟左側民眾洽公區1,24.99304581,121.3009567,iTaiwan/iTaoyuan
桃園區,桃園市政府1樓前棟左側民眾洽公區2,24.99304581,121.3009567,iTaiwan/iTaoyuan
桃園區,桃園市政府1樓後棟左側民眾洽公區,24.99304581,121.3009567,iTaiwan/iTaoyuan
桃園區,桃園市政府1樓後棟右側民眾洽公區,24.99304581,121.3009567,iTaiwan/iTaoyuan
桃園區,桃園市政府17樓後棟民眾洽公區,24.99303246,121.3010941,iTaiwan/iTaoyuan
桃園區,桃園市政府17樓走廊民眾洽公區,24.99304581,121.3009567,iTaiwan/iTaoyuan
桃園區,桃園市政府15樓走廊民眾洽公區,24.99304581,121.3009567,iTaiwan/iTaoyuan
桃園區,桃園市政府14樓走廊民眾洽公區,24.99304581,121.3009567,iTaiwan/iTaoyuan
桃園區,桃園市政府13樓走廊民眾洽公區,24.99304581,121.3009567,iTaiwan/iTaoyuan
桃園區,桃園市政府13樓後棟左側民眾洽公區,24.99304581,121.3009567,iTaiwan/iTaoyuan
桃園區,桃園市環保局10樓右側辦公室,24.99328232,121.3010788,iTaiwan/iTaoyuan
桃園區,ITWH001261桃園市綜合會議廳1F,24.99398041,121.3009567,iTaiwan/iTaoyuan
桃園區,桃園市政府環境清潔稽查大隊辦公室,24.99436188,121.3024368,iTaiwan/iTaoyuan
桃園區,桃園市政府消防局大林分隊,24.97794724,121.3204803,iTaiwan/iTaoyuan
桃園區,桃園市立圖書館大林分館,24.97810745,121.320816,iTaiwan/iTaoyuan
桃園區,ITWH001226桃園軌道願景館,24.9897747,121.315712,iTaiwan/iTaoyuan
桃園區,ITWH001226桃園軌道願景館,24.98972511,121.3156128,iTaiwan/iTaoyuan
桃園區,統聯客運中壢站,25.0286274,121.3002625,iTaiwan/iTaoyuan
桃園區,和欣客運南崁站,25.02869797,121.3002701,iTaiwan/iTaoyuan
桃園區,桃園福林公園陽明十一街口前燈桿,24.97920036,121.3099518,iTaiwan/iTaoyuan
桃園區,桃園捷運紅線先導公車智慧站牌-成功路,24.99857712,121.3129578,iTaiwan/iTaoyuan
桃園區,桃園捷運紅線先導公車智慧站牌-成功路,24.998772,121.312924,iTaiwan/iTaoyuan
桃園區,桃園建新公園建新街263號前電信桿右前方,24.99861908,121.3130341,iTaiwan/iTaoyuan
桃園區,桃園市政府勞動檢查處,24.98894501,121.310112,iTaiwan/iTaoyuan
桃園區,桃園客運桃園車站(試辦單位),24.99061584,121.3131638,iTaiwan/iTaoyuan
桃園區,桃園區國光客運桃園站,24.99009132,121.3117523,iTaiwan/iTaoyuan
桃園區,中壢客運桃園站(試辦單位),24.99066353,121.3135757,iTaiwan/iTaoyuan
桃園區,ITWH001244桃園市新住民文化會館2樓,24.99025536,121.3124924,iTaiwan/iTaoyuan
桃園區,ITWH001244桃園市新住民文化會館2樓,24.99014091,121.3123627,iTaiwan/iTaoyuan
桃園區,ITWH001243桃園市新住民文化會館1樓,24.99027061,121.3123932,iTaiwan/iTaoyuan
桃園區,桃園朝陽公園朝陽街120號前燈桿左前方,24.99828911,121.3116989,iTaiwan/iTaoyuan
桃園區,桃園區莊敬公園同安街609號對面燈桿右前,25.02407646,121.297493,iTaiwan/iTaoyuan
桃園區,桃園市政府消防局中路分隊,24.98989677,121.2781219,iTaiwan/iTaoyuan
桃園區,桃園市政府消防局保養場,24.98989677,121.2781219,iTaiwan/iTaoyuan
桃園區,桃園市桃園區衛生所,24.99011993,121.2787323,iTaiwan/iTaoyuan
桃園區,桃園地政事務所,24.99049568,121.2783585,iTaiwan/iTaoyuan
桃園區,桃園第三河濱公園三元街47巷電信桿,24.99403572,121.316803,iTaiwan/iTaoyuan
桃園區,桃園光影文化館,24.9991436,121.3074722,iTaiwan/iTaoyuan
桃園區,壽山巖觀音寺廟前廣場,24.98500061,121.3115997,iTaiwan/iTaoyuan
桃園區,桃園區公所里集會所-建國公園管理中心,24.9869957,121.3153915,iTaiwan/iTaoyuan
桃園區,桃園玉山公園南豐二街59號燈桿右前方,24.98251534,121.3039627,iTaiwan/iTaoyuan
桃園區,桃園玉山公園南豐二街59號燈桿左前方,24.98251534,121.3039627,iTaiwan/iTaoyuan
桃園區,桃園市政府就業服務處桃園就業中心2F,24.99153709,121.3083801,iTaiwan/iTaoyuan
桃園區,桃園市政府就業服務處桃園就業中心1F,24.99138832,121.308197,iTaiwan/iTaoyuan
桃園區,桃園市政府熱區服務_桃園區南平路與新埔八街口東南向,25.018525,121.299503,iTaiwan/iTaoyuan
桃園區,桃園市政府熱區服務_桃園區南平路與新埔八街口西南向,25.018525,121.299503,iTaiwan/iTaoyuan
桃園區,桃園中正藝文特區商圈南平路266號對面號誌桿,25.01905251,121.3000031,iTaiwan/iTaoyuan
桃園區,桃園藝文廣場中正路南平路口號誌桿,25.01821518,121.2979126,iTaiwan/iTaoyuan
桃園區,桃園市政府熱區服務_桃園區長壽街1號東向,24.98921204,121.3127899,iTaiwan/iTaoyuan
桃園區,桃園陽明公園長沙街72號號誌桿右前方,24.98026085,121.3089523,iTaiwan/iTaoyuan
桃園區,桃園陽明公園長沙街72號號誌桿左前方,24.98026085,121.3089523,iTaiwan/iTaoyuan
桃園區,桃園建國公園長安街36號對面燈桿左前方,24.98797417,121.3173447,iTaiwan/iTaoyuan
桃園區,桃園區忠孝兒童遊樂場宏昌十二街、泰昌三街口號誌桿右,24.985829,121.295365,iTaiwan/iTaoyuan
桃園區,桃園客運總公司(試辦單位),24.98673248,121.3141022,iTaiwan/iTaoyuan
桃園區,桃園市婦女館,24.98116684,121.3152237,iTaiwan/iTaoyuan
桃園區,桃園東溪綠園和平路1號旁路燈,24.99727821,121.3128052,iTaiwan/iTaoyuan
桃園區,桃園市立圖書館中路分館,24.98648453,121.2917252,iTaiwan/iTaoyuan
桃園區,桃園市立圖書館會稽分館,25.00065231,121.3160858,iTaiwan/iTaoyuan
桃園區,桃園市忠烈祠文化館,25.00603676,121.3250885,iTaiwan/iTaoyuan
桃園區,桃園市政府地方稅務局桃園總局土地增值稅股,24.99547768,121.3198929,iTaiwan/iTaoyuan
桃園區,桃園市政府地方稅務局桃園總局,24.99547768,121.3198929,iTaiwan/iTaoyuan
桃園區,桃園市政府地方稅務局桃園總局二樓,24.99570847,121.3201065,iTaiwan/iTaoyuan
桃園區,桃園市政府水務局啟聖大樓7樓,24.99263954,121.3110733,iTaiwan/iTaoyuan
桃園區,桃園市政府水務局啟聖大樓4樓,24.99257088,121.3112335,iTaiwan/iTaoyuan
桃園區,桃園市政府水務局中華大樓6樓,24.99251747,121.3116074,iTaiwan/iTaoyuan
桃園區,桃園市政府熱區服務_桃園區同德六街與藝文一街口,25.016747,121.300159,iTaiwan/iTaoyuan
桃園區,桃園市政府熱區服務_桃園區同德六街與新埔六街口南向,25.017146,121.301087,iTaiwan/iTaoyuan
桃園區,桃園市政府熱區服務_桃園區同德六街與新埔六街口西向,25.017146,121.301087,iTaiwan/iTaoyuan
桃園區,桃園市政府熱區服務_桃園區同德六街與新埔六街口北向,25.017146,121.301087,iTaiwan/iTaoyuan
桃園區,桃園市政府熱區服務_桃園區同德六街103號對面東向,25.01597786,121.2990189,iTaiwan/iTaoyuan
桃園區,桃園市政府熱區服務_桃園區同德六街103號對面北向,25.01597786,121.2990189,iTaiwan/iTaoyuan
桃園區,桃園市政府熱區服務_桃園區同德五街與藝文一街口南向,25.014881,121.300771,iTaiwan/iTaoyuan
桃園區,桃園市政府熱區服務_桃園區同德五街與藝文一街口北向,25.01496887,121.3009567,iTaiwan/iTaoyuan
桃園區,桃園區同安親子公園新埔六街146-1號前人型號誌桿,25.01736069,121.3013306,iTaiwan/iTaoyuan
桃園區,桃園區同安親子公園同安街、同安街336巷口中華電信自備桿,25.01707458,121.3029099,iTaiwan/iTaoyuan
桃園區,桃園中正公園同安國小與中正公園旁交通測速桿右前方,25.02798462,121.2931824,iTaiwan/iTaoyuan
桃園區,桃園市立圖書館埔子分館,25.02365875,121.2975006,iTaiwan/iTaoyuan
桃園區,桃園永康公園永康街97號對面號誌桿左前方,25.00008583,121.3039627,iTaiwan/iTaoyuan
桃園區,平鎮區民俗文化公園大連街、上海路120巷口燈桿右前,24.99359322,121.3102341,iTaiwan/iTaoyuan
桃園區,桃園市立圖書館桃園分館2F,24.99297714,121.3110428,iTaiwan/iTaoyuan
桃園區,桃園市立圖書館桃園分館1F,24.99297714,121.3110428,iTaiwan/iTaoyuan
桃園區,桃園區民族公園民族路297巷3號對面燈桿左前,24.995907,121.306518,iTaiwan/iTaoyuan
桃園區,桃園區民族公園民族路297巷3號對面燈桿右前,24.995907,121.306518,iTaiwan/iTaoyuan
桃園區,桃園市立圖書館寶興閱覽室,25.01254082,121.3137054,iTaiwan/iTaoyuan
桃園區,桃園第二河濱公園春日路1651巷54號路燈桿,25.02567101,121.3039551,iTaiwan/iTaoyuan
桃園區,大溪區埔頂公園公園路、埔仁路公廁前中華電信自備桿左前,25.01133156,121.3134689,iTaiwan/iTaoyuan
桃園區,大溪區埔頂公園公園路、埔仁路公廁前中華電信自備桿左前,25.011347,121.313375,iTaiwan/iTaoyuan
桃園區,桃園區忠孝兒童遊樂場宏昌十二街、泰昌三街口號誌桿左,24.99161148,121.3071594,iTaiwan/iTaoyuan
桃園區,桃園區忠孝兒童遊樂場宏昌十二街、泰昌三街口號誌桿左,25.01137733,121.313446,iTaiwan/iTaoyuan
桃園區,桃園溫州公園路燈桿右前方,24.98163605,121.3113174,iTaiwan/iTaoyuan
桃園區,桃園溫州公園路燈桿左前方,24.98163605,121.3113174,iTaiwan/iTaoyuan
桃園區,桃園第三河濱公園經國路769巷電信桿,24.98270226,121.3019943,iTaiwan/iTaoyuan
桃園區,大園竹圍漁港商圈港口7-3號前招牌桿,24.99161148,121.3071594,iTaiwan/iTaoyuan
桃園區,大園竹圍漁港商圈港口7-3號前招牌桿,25.04741096,121.2921753,iTaiwan/iTaoyuan
桃園區,桃園市政府警察局桃園分局,25.00028992,121.2989273,iTaiwan/iTaoyuan
桃園區,桃園虎頭山環保公園入口自立桿右前方,25.0165081,121.305481,iTaiwan/iTaoyuan
桃園區,虎頭山風景特定區-奧爾森林學堂(綠葉方舟),25.00175667,121.3274536,iTaiwan/iTaoyuan
桃園區,虎頭山風景特定區-桃信亭,25.0022316,121.3253937,iTaiwan/iTaoyuan
桃園區,桃園市孔廟,25.00094795,121.3278046,iTaiwan/iTaoyuan
桃園區,虎頭山風景特定區-遊客中心,25.00170326,121.3274765,iTaiwan/iTaoyuan
桃園區,桃園虎頭山公園奧爾森林學堂,25.00170708,121.3272781,iTaiwan/iTaoyuan
桃園區,桃園虎頭山公園楓香野餐區,25.00170708,121.3272781,iTaiwan/iTaoyuan
桃園區,桃園市風景區管理處(虎頭山辦公室),25.00171089,121.3272781,iTaiwan/iTaoyuan
桃園區,虎頭山風景特定區-烤肉區,25.00177193,121.3274612,iTaiwan/iTaoyuan
桃園區,桃園市政府社會局-桃園市北區老人文康活動中心,25.00363541,121.3273468,iTaiwan/iTaoyuan
桃園區,桃園介壽公園介壽路與介新街口電信桿左前方,24.9801594,121.3053987,iTaiwan/iTaoyuan
桃園區,桃園捷運綠線先導公車智慧站牌-桃園監理站(往八德),24.978848,121.303797,iTaiwan/iTaoyuan
桃園區,桃園捷運綠線先導公車智慧站牌-桃園監理站(往桃園),24.979073,121.304423,iTaiwan/iTaoyuan
桃園區,桃園區公所里集會所-陽明公園管理中心,24.98231506,121.3079224,iTaiwan/iTaoyuan
桃園區,桃園福林公園介新街電信桿,24.97850037,121.3063126,iTaiwan/iTaoyuan
桃園區,中壢南亞公園龍東路445巷195號燈桿左前方,24.96204567,121.2943115,iTaiwan/iTaoyuan
桃園區,蘆竹區兒三環保公園南竹路五段224巷45弄8號燈桿左前,24.96206856,121.2942886,iTaiwan/iTaoyuan
桃園區,桃園區公民會館,24.99130821,121.3120499,iTaiwan/iTaoyuan
桃園區,桃園中正藝文特區商圈中埔二街40號左側號誌桿,25.01016808,121.2968979,iTaiwan/iTaoyuan
桃園區,桃園捷運綠線先導公車智慧站牌-南崁,24.98772049,121.2918625,iTaiwan/iTaoyuan
桃園區,桃園市政府熱區服務_桃園區中正路與南平路口東向,25.01785851,121.2977676,iTaiwan/iTaoyuan
桃園區,桃園火車站前商圈中正路84號前號誌桿,24.99258041,121.3124695,iTaiwan/iTaoyuan
桃園區,桃園捷運綠線先導公車智慧站牌-永和市場(往蘆竹),24.99789238,121.3093796,iTaiwan/iTaoyuan
桃園區,壽山巖觀音寺商店街,24.99713135,121.3095016,iTaiwan/iTaoyuan
桃園區,中壢華勛公園華勛街363巷39號燈桿左前方,24.99576759,121.3103714,iTaiwan/iTaoyuan
桃園區,桃園市政府八德區農民市集路燈064右向,24.99595261,121.3102646,iTaiwan/iTaoyuan
桃園區,桃園市政府八德區農民市集路燈064左向,24.99576759,121.3103714,iTaiwan/iTaoyuan
桃園區,桃園中正夜市北埔路與正康二街口右側,24.99606514,121.3101959,iTaiwan/iTaoyuan
桃園區,桃園火車站前商圈中正路174號前號誌桿,24.99448204,121.3113098,iTaiwan/iTaoyuan
桃園區,桃園捷運綠線先導公車智慧站牌-桃園郵局(往桃園),24.99338531,121.3115768,iTaiwan/iTaoyuan
桃園區,桃園火車站前商圈中正路127號左前測速桿,24.99331474,121.3117371,iTaiwan/iTaoyuan
桃園區,桃園市政府熱區服務_桃園區中正路11號東向,24.98968887,121.3128891,iTaiwan/iTaoyuan
桃園區,桃園市政府熱區服務_桃園區中正路11號西向,24.98964691,121.3127213,iTaiwan/iTaoyuan
桃園區,桃園市展演中心,25.01735306,121.2987518,iTaiwan/iTaoyuan
桃園區,桃園捷運紅線先導公車智慧站牌-武陵高中,24.98856735,121.2854767,iTaiwan/iTaoyuan
桃園區,桃園市政府警察局桃園分局中路派出所,24.99325752,121.2999191,iTaiwan/iTaoyuan
桃園區,桃園捷運紅線先導公車智慧站牌-桃園市政府(往桃園),24.99201202,121.3011856,iTaiwan/iTaoyuan
桃園區,桃園捷運紅線先導公車智慧站牌-桃園市政府(往中壢),24.99201202,121.3011856,iTaiwan/iTaoyuan
桃園區,桃園捷運紅線先導公車智慧站牌-土地改革陳列館(往中壢),24.99144363,121.2986374,iTaiwan/iTaoyuan
桃園區,桃園捷運紅線先導公車智慧站牌-土地改革陳列館(往桃園),24.99144363,121.2986374,iTaiwan/iTaoyuan
桃園區,桃園捷運紅線先導公車智慧站牌-中山育樂街口(往中壢),24.992241,121.303923,iTaiwan/iTaoyuan
桃園區,桃園捷運紅線先導公車智慧站牌-中山育樂街口(往桃園),24.992136,121.3035583,iTaiwan/iTaoyuan
桃園區,桃園捷運紅線先導公車智慧站牌-中山三民路口(往中壢),24.992296,121.305462,iTaiwan/iTaoyuan
桃園區,桃園捷運紅線先導公車智慧站牌-中山三民路口(往桃園),24.99247551,121.3053741,iTaiwan/iTaoyuan
桃園區,桃園捷運紅線先導公車智慧站牌-中山南華街口(往桃園),24.99264526,121.3073502,iTaiwan/iTaoyuan
桃園區,桃園捷運紅線先導公車智慧站牌-景福宮(往中壢),24.99401665,121.3107834,iTaiwan/iTaoyuan
桃園區,桃園捷運紅線先導公車智慧站牌-景福宮(往桃園),24.994204,121.310144,iTaiwan/iTaoyuan
桃園區,桃園區公所里集會所-三民里集會所,24.99761581,121.3206329,iTaiwan/iTaoyuan
桃園區,桃園延平公園大豐路189號對面燈桿右前方,24.98009491,121.3148193,iTaiwan/iTaoyuan
桃園區,桃園延平公園大豐路189號對面燈桿左前方,24.98009491,121.3148193,iTaiwan/iTaoyuan
桃園區,桃園南平公園五福四街1號旁燈桿右前方,25.02122116,121.3054504,iTaiwan/iTaoyuan
桃園區,桃園南平公園五福四街1號旁燈桿左前方,25.02122116,121.3054504,iTaiwan/iTaoyuan
桃園區,桃園三民公園三民路一段386號燈桿右前方,25.00168991,121.3177872,iTaiwan/iTaoyuan
桃園區,桃園市政府體育局（田徑場2樓辦公場所）,24.99578857,121.3231354,iTaiwan/iTaoyuan
桃園區,桃園市立巨蛋體育館(南門),24.99578857,121.3231354,iTaiwan/iTaoyuan
桃園區,桃園市立巨蛋體育館(東門),24.99578857,121.3231354,iTaiwan/iTaoyuan
桃園區,桃園市政府體育局（田徑場1樓大廳）,24.99578857,121.3231354,iTaiwan/iTaoyuan
桃園區,桃園第一河濱公園三元街38-1號號誌桿,25.00272942,121.3186722,iTaiwan/iTaoyuan
桃園區,ITWH001251桃園市政府住宅發展處,24.99904251,121.2972412,iTaiwan/iTaoyuan
桃園區,桃園市政府消防局局本部,24.99950981,121.2981567,iTaiwan/iTaoyuan
桃園區,ITWH000035桃園市政府消防局局本部,24.99962997,121.298027,iTaiwan/iTaoyuan
平鎮區,平鎮區圖書館三樓閱覽區,24.93963051,121.2175751,iTaiwan/iTaoyuan
平鎮區,桃園市平鎮地政事務所,24.94003868,121.2145157,iTaiwan/iTaoyuan
平鎮區,平鎮區戶政事務所民眾洽公區,24.94583511,121.2188721,iTaiwan/iTaoyuan
平鎮區,中壢五福商圈五穀街40號路燈右側,24.94044304,121.2513962,iTaiwan/iTaoyuan
平鎮區,桃園市政府消防局復旦分隊,24.947649,121.2024765,iTaiwan/iTaoyuan
平鎮區,平鎮區復旦公園復興街55號旁燈桿左前,24.954423,121.204817,iTaiwan/iTaoyuan
平鎮區,平鎮區復旦公園復興街55號旁燈桿右前,24.954423,121.204817,iTaiwan/iTaoyuan
平鎮區,平鎮區調解委員會,24.94573975,121.2188721,iTaiwan/iTaoyuan
平鎮區,平鎮區公所二樓大廳,24.94579124,121.2183762,iTaiwan/iTaoyuan
平鎮區,平鎮區公所一樓大廳,24.94579124,121.2183762,iTaiwan/iTaoyuan
平鎮區,桃園市平鎮區衛生所,24.94614601,121.2177811,iTaiwan/iTaoyuan
平鎮區,桃園市政府消防局山峰分隊,24.89969444,121.2038879,iTaiwan/iTaoyuan
平鎮區,東勢圖書館二樓閱覽區,24.91047287,121.2314606,iTaiwan/iTaoyuan
平鎮區,平鎮新勢公園延平路一段201號對面號誌桿右前方,24.9502697,121.2162399,iTaiwan/iTaoyuan
平鎮區,桃園市政府社會局桃園市南區青少年活動中心,24.95101738,121.2152634,iTaiwan/iTaoyuan
平鎮區,平鎮新勢公園延平路一段143號前路燈桿右前方,24.95062447,121.2180252,iTaiwan/iTaoyuan
平鎮區,平鎮新勢公園延平路一段143號前路燈桿左前方,24.95062447,121.2180252,iTaiwan/iTaoyuan
平鎮區,桃園捷運藍線先導公車智慧站牌-仁愛新村(往中壢),24.958678,121.172352,iTaiwan/iTaoyuan
平鎮區,桃園捷運藍線先導公車智慧站牌-仁愛新村(往新屋),24.958431,121.171211,iTaiwan/iTaoyuan
平鎮區,平鎮區文化公園文化街、復興路口號誌桿左前,24.954379,121.20311,iTaiwan/iTaoyuan
平鎮區,平鎮區文化公園文化街、復興路口號誌桿右前,24.954379,121.20311,iTaiwan/iTaoyuan
平鎮區,桃園市政府消防局平鎮分隊,24.9144249,121.2099304,iTaiwan/iTaoyuan
平鎮區,桃園市政府警察局平鎮分局,24.91288757,121.2075577,iTaiwan/iTaoyuan
中壢區,ITWH000893桃園市政府青年事務局2F,24.96514702,121.2254715,iTaiwan/iTaoyuan
中壢區,ITWH000892桃園市政府青年事務局1F,24.96514702,121.2254715,iTaiwan/iTaoyuan
中壢區,桃園市中壢區公所,24.96581268,121.2251358,iTaiwan/iTaoyuan
中壢區,桃園市政府消防局龍岡分隊,24.92577362,121.2435226,iTaiwan/iTaoyuan
中壢區,中壢客運112線智慧站牌-大竹(往中壢),24.947111,121.227917,iTaiwan/iTaoyuan
中壢區,中壢客運112線智慧站牌-大竹(往忠貞),24.94688225,121.2280655,iTaiwan/iTaoyuan
中壢區,龍潭區龍潭運動公園公園路、健行路口號誌桿左,24.966360,121.263609,iTaiwan/iTaoyuan
中壢區,桃園捷運紅線先導公車智慧站牌-統領百貨,24.966111,121.263053,iTaiwan/iTaoyuan
中壢區,中壢夢幻公園榮民路與榮安十三街口前燈桿左前方,24.96267509,121.2618637,iTaiwan/iTaoyuan
中壢區,中壢夢幻公園榮民路與榮安十三街口前燈桿右前方,24.9627018,121.216835,iTaiwan/iTaoyuan
中壢區,中壢士校生態埤塘公園華勛消防分隊號誌桿右前方,24.94020653,121.2561569,iTaiwan/iTaoyuan
中壢區,中壢士校生態埤塘公園華勛消防分隊號誌桿左前方,24.94020653,121.2561569,iTaiwan/iTaoyuan
中壢區,桃園市政府消防局華勛分隊,24.94020653,121.2561569,iTaiwan/iTaoyuan
中壢區,中壢莒光環保公園寧夏二街39號前燈桿左前方,24.95141411,121.235405,iTaiwan/iTaoyuan
中壢區,中壢莒光環保公園寧夏二街39號前燈桿右前方,24.95141411,121.235405,iTaiwan/iTaoyuan
中壢區,中壢中原夜市實踐路與大仁四街口左側,24.95549965,121.2406006,iTaiwan/iTaoyuan
中壢區,中壢中原夜市實踐路與大仁四街口右側,24.99990082,121.2406006,iTaiwan/iTaoyuan
中壢區,老街溪開蓋紀念館廣場義民路二段157號前路燈桿右前方,24.96216774,121.2176132,iTaiwan/iTaoyuan
中壢區,老街溪開蓋紀念館廣場義民路二段157號前路燈桿左前方,24.96216774,121.2176132,iTaiwan/iTaoyuan
中壢區,桃園市政府消防局中壢分隊,24.95333862,121.215332,iTaiwan/iTaoyuan
中壢區,桃園市中壢區戶政事務所,24.96251869,121.2300491,iTaiwan/iTaoyuan
中壢區,桃園市政府環境保護局中壢辦公室,24.96233177,121.2298508,iTaiwan/iTaoyuan
中壢區,桃園市政府地方稅務局中壢分局,24.96233177,121.2298508,iTaiwan/iTaoyuan
中壢區,桃園市中壢區衛生所,24.96233177,121.2298508,iTaiwan/iTaoyuan
中壢區,桃園市政府就業服務處中壢就業中心,24.95307159,121.227066,iTaiwan/iTaoyuan
中壢區,ITWH001260桃園市政府就業服務處中壢就業中心1F,24.95307922,121.2270279,iTaiwan/iTaoyuan
中壢區,中壢新民夜市新民路83號路燈左側,24.95939255,121.214859,iTaiwan/iTaoyuan
中壢區,老街溪開蓋紀念館廣場義民路二段17號前路燈桿右前方,24.90764999,121.1431732,iTaiwan/iTaoyuan
中壢區,老街溪開蓋紀念館廣場義民路二段17號前路燈桿右前方,24.907702,121.143062,iTaiwan/iTaoyuan
中壢區,老街溪開蓋紀念館廣場義民路二段17號前路燈桿左前方,24.90787888,121.141861,iTaiwan/iTaoyuan
中壢區,老街溪開蓋紀念館廣場義民路二段17號前路燈桿左前方,24.96158981,121.2153168,iTaiwan/iTaoyuan
中壢區,中壢新民夜市新民路115號路燈左側,24.96030807,121.2149582,iTaiwan/iTaoyuan
中壢區,中壢新民夜市新民路115號路燈右側,24.96030807,121.2149582,iTaiwan/iTaoyuan
中壢區,桃園市政府熱區服務_中壢區六和路與元化路口南向,24.98298264,121.2226791,iTaiwan/iTaoyuan
中壢區,桃園市政府熱區服務_中壢區六和路與元化路口東向,24.962204,121.224021,iTaiwan/iTaoyuan
中壢區,桃園市政府熱區服務_中壢區新生路與元化路口東向,24.96250916,121.2229385,iTaiwan/iTaoyuan
中壢區,桃園市政府熱區服務_中壢區新生路217號對面南向,24.96225929,121.2225571,iTaiwan/iTaoyuan
中壢區,桃園市政府熱區服務_中壢區新生路217號對面北向,24.96225929,121.2225571,iTaiwan/iTaoyuan
中壢區,中壢復興公園復華街195號前燈桿左前方,24.97368431,121.2479095,iTaiwan/iTaoyuan
中壢區,中壢復興公園復華街195號前燈桿右前方,24.97368431,121.2479095,iTaiwan/iTaoyuan
中壢區,ITWH000860桃園市政府交通事件裁決處,24.968153,121.2585297,iTaiwan/iTaoyuan
中壢區,桃園市立圖書館自強分館1-2樓,24.967907,121.258644,iTaiwan/iTaoyuan
中壢區,桃園市立圖書館自強分館3-4樓,24.967907,121.258644,iTaiwan/iTaoyuan
中壢區,桃園市中壢區戶政事所自強工作站,24.96788597,121.2590408,iTaiwan/iTaoyuan
中壢區,中壢五福商圈志欣路67號路燈,24.95828056,121.2080688,iTaiwan/iTaoyuan
中壢區,桃園市中壢區殯葬管理所殯儀館禮堂,24.97716713,121.2262726,iTaiwan/iTaoyuan
中壢區,桃園市中壢區殯葬管理所殯儀館服務櫃台,24.97716713,121.2262726,iTaiwan/iTaoyuan
中壢區,桃園市中壢區殯葬管理所火化場,24.97685051,121.225296,iTaiwan/iTaoyuan
中壢區,高鐵桃園車站旅遊服務中心,25.01330185,121.2148819,iTaiwan/iTaoyuan
中壢區,馬祖新村眷村文創園區,24.93579865,121.2376785,iTaiwan/iTaoyuan
中壢區,新竹客運中壢總站(試辦單位),24.95363617,121.2245102,iTaiwan/iTaoyuan
中壢區,中壢客運總公司(試辦單位),24.95353699,121.2242661,iTaiwan/iTaoyuan
中壢區,中壢舊社公園義民路103號前燈桿右前方,24.95513153,121.2412109,iTaiwan/iTaoyuan
中壢區,中壢舊社公園義民路103號前燈桿右前方,24.954860,121.241342,iTaiwan/iTaoyuan
中壢區,大溪區埔頂公園仁善路、仁德八街口埔頂公園管理中心前,24.95658112,121.2402802,iTaiwan/iTaoyuan
中壢區,大溪區埔頂公園仁善路、仁德八街口埔頂公園管理中心前,24.955788,121.240943,iTaiwan/iTaoyuan
中壢區,桃園市政府消防局青埔分隊,25.01348114,121.210968,iTaiwan/iTaoyuan
中壢區,桃園市政府社會局-桃園市南區老人文康活動中心,24.94545937,121.2260361,iTaiwan/iTaoyuan
中壢區,桃園捷運紅線先導公車智慧站牌-中壢聯合辦公大樓,24.9627552,121.2288055,iTaiwan/iTaoyuan
中壢區,桃園市政府警察局中壢分局,24.95422745,121.2225342,iTaiwan/iTaoyuan
中壢區,桃園捷運紅線先導公車智慧站牌-中壢分局,24.95457649,121.2226715,iTaiwan/iTaoyuan
中壢區,桃園捷運紅線先導公車智慧站牌-中壢監理站,24.960038,121.224961,iTaiwan/iTaoyuan
中壢區,平鎮區宋屋公園廣泰路、廣義街口燈桿左前,24.94508,121.203986,iTaiwan/iTaoyuan
中壢區,平鎮區宋屋公園廣泰路、廣義街口燈桿右前,24.94508,121.203986,iTaiwan/iTaoyuan
中壢區,中壢區成功公園成章二街30號對面燈桿左前,24.977534,121.25758,iTaiwan/iTaoyuan
中壢區,中壢區成功公園成章二街30號對面燈桿右前,24.977534,121.25758,iTaiwan/iTaoyuan
中壢區,桃園市政府消防局內壢分隊,24.97887993,121.2454681,iTaiwan/iTaoyuan
中壢區,桃園市中壢區圖書館內壢分館,24.97774696,121.2578125,iTaiwan/iTaoyuan
中壢區,和欣客運中壢站,24.95763397,121.2038651,iTaiwan/iTaoyuan
中壢區,國光客運中壢民族站,24.95763588,121.2039108,iTaiwan/iTaoyuan
中壢區,桃園捷運藍線先導公車智慧站牌-新明國中,24.957625,121.193959,iTaiwan/iTaoyuan
中壢區,中壢龍岡萬坪公園龍昌路與龍東路口電信桿右前方,24.979844,121.250115,iTaiwan/iTaoyuan
中壢區,中壢龍岡萬坪公園龍昌路與龍東路口電信桿左前方,24.979844,121.250115,iTaiwan/iTaoyuan
中壢區,中壢南亞公園龍東路445巷195號燈桿右前方,24.95065498,121.2316895,iTaiwan/iTaoyuan
中壢區,桃園市政府八德區農民市集路燈068右向,24.954950,121.224521,iTaiwan/iTaoyuan
中壢區,桃園市政府八德區農民市集路燈068左向,24.954950,121.224521,iTaiwan/iTaoyuan
中壢區,中壢新興公園少康二街31號前燈桿右前方,24.956371,121.221134,iTaiwan/iTaoyuan
中壢區,桃園第一河濱公園成功路三段115巷83弄20號電信桿,24.954556,121.225600,iTaiwan/iTaoyuan
中壢區,桃園虎頭山環保公園入口自立桿左前方,24.954556,121.225600,iTaiwan/iTaoyuan
中壢區,中壢區五福商圈五常街22巷9號路燈北向,24.955887,121.222406,iTaiwan/iTaoyuan
中壢區,中壢區五福商圈五常街22巷9號路燈西向,24.955887,121.222406,iTaiwan/iTaoyuan
中壢區,中壢華勛公園華勛街363巷39號燈桿右前方,24.955363,121.223611,iTaiwan/iTaoyuan
中壢區,中壢忠孝公園原住民會館後電信桿左前方,24.955340,121.223625,iTaiwan/iTaoyuan
中壢區,大溪區埔頂公園仁善路、仁德八街口埔頂公園管理中心後,24.95574379,121.2409134,iTaiwan/iTaoyuan
中壢區,大溪區埔頂公園仁善路、仁德八街口埔頂公園管理中心後,24.955788,121.240943,iTaiwan/iTaoyuan
中壢區,桃園市立圖書館龍岡分館,24.937757,121.255688,iTaiwan/iTaoyuan
中壢區,桃園市立圖書館龍岡分館-I2,24.937757,121.255688,iTaiwan/iTaoyuan
中壢區,桃園市立圖書館龍岡分館-I3,24.937757,121.255688,iTaiwan/iTaoyuan
中壢區,中壢中原夜市日新路與三和三街口左側,24.95501518,121.2396851,iTaiwan/iTaoyuan
中壢區,中壢甲蟲兒童公園文成南街13巷5號電信桿左前方,24.97881889,121.2529526,iTaiwan/iTaoyuan
中壢區,中壢元生公園文化路134號號誌桿右前方,24.97441673,121.2538757,iTaiwan/iTaoyuan
中壢區,桃園市政府熱區服務_中壢區六和路與九和二街口東向,24.96544075,121.22435,iTaiwan/iTaoyuan
中壢區,桃園市政府熱區服務_中壢區六和路與九和二街口南向,24.96300697,121.2242203,iTaiwan/iTaoyuan
中壢區,桃園市政府熱區服務_中壢區六和路與九和二街口北向,24.96309471,121.2242203,iTaiwan/iTaoyuan
中壢區,桃園中正夜市北埔路與正康二街口左側,24.94043541,121.2514114,iTaiwan/iTaoyuan
中壢區,三坑老街永福宮廟前廣場,24.97621536,121.2541428,iTaiwan/iTaoyuan
中壢區,桃園市政府熱區服務_中壢區元化路與中正路口南向,24.954049,121.225280,iTaiwan/iTaoyuan
中壢區,桃園市政府熱區服務_中壢區元化路與中正路口東向,24.954049,121.225280,iTaiwan/iTaoyuan
中壢區,新竹客運中壢北站(試辦單位),24.95441818,121.2260513,iTaiwan/iTaoyuan
中壢區,桃園市政府熱區服務_中壢區元化路275號南向,24.9622879,121.2256851,iTaiwan/iTaoyuan
中壢區,桃園市政府熱區服務_中壢區元化路275號北向,24.9622879,121.2256851,iTaiwan/iTaoyuan
中壢區,中壢六合商圈元化路2段3號前燈桿,24.96227646,121.2227783,iTaiwan/iTaoyuan
中壢區,中壢五福商圈五穀街40號路燈左側,24.959525,121.208249,iTaiwan/iTaoyuan
中壢區,桃園市政府消防局興國分隊,24.96250916,121.2197571,iTaiwan/iTaoyuan
中壢區,桃園市中壢區圖書館中華溫書室,24.96186256,121.235817,iTaiwan/iTaoyuan
中壢區,桃園捷運紅線先導公車智慧站牌-內壢國中(往中壢),24.968797,121.24804,iTaiwan/iTaoyuan
中壢區,桃園捷運紅線先導公車智慧站牌-內壢國中(往桃園),24.968538,121.248133,iTaiwan/iTaoyuan
中壢區,桃園捷運紅線先導公車智慧站牌-自立新村,24.96969223,121.2503433,iTaiwan/iTaoyuan
中壢區,中壢六合商圈中美路1段9號前燈桿,24.95926476,121.2241211,iTaiwan/iTaoyuan
中壢區,桃園市立圖書館中壢分館自修室,24.95929146,121.2262726,iTaiwan/iTaoyuan
中壢區,桃園市立圖書館中壢分館三樓,24.95929146,121.2262726,iTaiwan/iTaoyuan
中壢區,桃園市中壢區圖書館,24.958798,121.226110,iTaiwan/iTaoyuan
中壢區,中壢中正公園中美路47號前燈桿左前方,24.95816231,121.2263718,iTaiwan/iTaoyuan
中壢區,中壢中正公園中美路47號前燈桿右前方,24.95816231,121.2263718,iTaiwan/iTaoyuan
中壢區,中壢藝術館,24.95851517,121.227562,iTaiwan/iTaoyuan
中壢區,桃園建國公園長安街36號對面燈桿右前方,24.95870018,121.2248993,iTaiwan/iTaoyuan
中壢區,桃園市政府熱區服務_中壢區中和路與元化路口西向,24.95410919,121.2266235,iTaiwan/iTaoyuan
中壢區,桃園客運中壢站(試辦單位),24.95478249,121.2285767,iTaiwan/iTaoyuan
中壢區,中壢火車站旅遊服務中心,24.95372391,121.2258301,iTaiwan/iTaoyuan
中壢區,桃園捷運藍線先導公車智慧站牌-大崙(往中壢),24.98897552,121.1791916,iTaiwan/iTaoyuan
中壢區,桃園捷運藍線先導公車智慧站牌-大崙(往新屋),24.98897552,121.1791916,iTaiwan/iTaoyuan
中壢區,桃園捷運藍線先導公車智慧站牌-居安新村(往新屋),24.959561,121.210384,iTaiwan/iTaoyuan
中壢區,中壢火車站前商圈中正路58號前號誌桿,24.95485497,121.2241516,iTaiwan/iTaoyuan
中壢區,桃園客運中壢公車站(試辦單位),24.95402908,121.2239456,iTaiwan/iTaoyuan
中壢區,老街溪河川教育中心廣場中正路295巷33號前路燈桿,24.95425224,121.2180405,iTaiwan/iTaoyuan
中壢區,桃園市中壢地政事務所,24.95815468,121.2175903,iTaiwan/iTaoyuan
中壢區,中壢六合商圈元化路260號前燈桿,24.96184921,121.2254715,iTaiwan/iTaoyuan
中壢區,中壢火車站前商圈中央西路1段69號前路燈桿,24.95763588,121.221489,iTaiwan/iTaoyuan
中壢區,中壢火車站前商圈中山路147號前路燈桿,24.95580101,121.2241974,iTaiwan/iTaoyuan
中壢區,平鎮區民俗文化公園大連街、上海路120巷口燈桿左前,24.912136,121.207248,iTaiwan/iTaoyuan
中壢區,中壢光明公園三光路381號前燈桿右前方,24.96462822,121.2154083,iTaiwan/iTaoyuan
中壢區,桃園市政府熱區服務_中壢區九和一街與恩德街口東向,24.96167755,121.2238846,iTaiwan/iTaoyuan
中壢區,桃園市政府熱區服務_中壢區九和一街與恩德街口西向,24.96167374,121.2238846,iTaiwan/iTaoyuan
大溪區,慈湖園區-後慈湖1號辦公室,24.84329224,121.3032227,iTaiwan/iTaoyuan
大溪區,大溪老街商圈登龍路58號右側電信桿,24.88436127,121.2870789,iTaiwan/iTaoyuan
大溪區,大溪中正公園-帆船廣場,24.885704,121.285107,iTaiwan/iTaoyuan
大溪區,大溪老街商圈普濟路39號前景觀燈桿,24.88624573,121.2856064,iTaiwan/iTaoyuan
大溪區,大溪老街商圈普濟路39-1號前燈桿,24.885952,121.285202,iTaiwan/iTaoyuan
大溪區,大溪中正公園-超然亭,24.88577652,121.285202,iTaiwan/iTaoyuan
大溪區,大溪中正公園-相撲亭,24.8839016,121.2848358,iTaiwan/iTaoyuan
大溪區,大溪中正公園-公廁,24.88389778,121.2848358,iTaiwan/iTaoyuan
大溪區,桃園市大溪區圖書館本館,24.88098145,121.2863083,iTaiwan/iTaoyuan
大溪區,桃園市大溪區公所民眾休息區,24.88053131,121.2870102,iTaiwan/iTaoyuan
大溪區,桃園市政府警察局大溪分局,24.88032913,121.2871552,iTaiwan/iTaoyuan
大溪區,慈湖遊客中心,24.83978653,121.2928009,iTaiwan/iTaoyuan
大溪區,慈湖園區-慈湖遊客中心北廂房外,24.84045982,121.2941818,iTaiwan/iTaoyuan
大溪區,慈湖園區-導覽服務站後方,24.84051323,121.2919464,iTaiwan/iTaoyuan
大溪區,經國紀念館,24.84057045,121.2919083,iTaiwan/iTaoyuan
大溪區,國防部後備指揮部桃園管理組(慈湖陵寢),24.84056854,121.2919083,iTaiwan/iTaoyuan
大溪區,桃園客運大溪站,24.8812027,121.2878571,iTaiwan/iTaoyuan
大溪區,桃園市大溪地政事務所,24.88207626,121.2884903,iTaiwan/iTaoyuan
大溪區,桃園市立圖書館康莊分館2號熱點,24.86841011,121.285141,iTaiwan/iTaoyuan
大溪區,桃園市立圖書館康莊分館1號熱點,24.86830139,121.2850571,iTaiwan/iTaoyuan
大溪區,桃園中正夜市中正路與北埔路口,24.88457108,121.2892838,iTaiwan/iTaoyuan
大溪區,桃園市大溪區戶政事務所,24.87957001,121.2888031,iTaiwan/iTaoyuan
大溪區,八德區大湳公園福國北街、中路街口中華電信自備桿左前,24.8697834,121.2705994,iTaiwan/iTaoyuan
大溪區,八德區大湳公園福國北街、中路街口中華電信自備桿右前,24.86973763,121.2706528,iTaiwan/iTaoyuan
大溪區,中壢龍岡森林公園龍岡路三段262巷38弄口燈桿右前方,24.86973953,121.2706528,iTaiwan/iTaoyuan
大溪區,老街溪河川教育中心廣場,24.86977959,121.2705994,iTaiwan/iTaoyuan
大溪區,桃園市原住民文化會館,24.89595413,121.2821655,iTaiwan/iTaoyuan
大溪區,桃園市政府地方稅務局大溪分局,24.89899254,121.2838974,iTaiwan/iTaoyuan
大溪區,大溪中正公園,24.95759392,121.2992477,iTaiwan/iTaoyuan
大溪區,桃園市政府消防局大溪分隊,24.88887215,121.2869415,iTaiwan/iTaoyuan
大溪區,桃園市立圖書館崎頂分館,24.90454483,121.2838593,iTaiwan/iTaoyuan
大溪區,桃園市政府消防局圳頂分隊,24.90467453,121.2845078,iTaiwan/iTaoyuan
大溪區,桃園市大溪區衛生所,24.88453293,121.2855072,iTaiwan/iTaoyuan
大園區,桃園中正夜市北埔路與正康二街口,25.03796005,121.2806168,iTaiwan/iTaoyuan
大園區,桃園區漁會,25.11687469,121.2449265,iTaiwan/iTaoyuan
大園區,桃園市政府消防局大園分隊,25.06141853,121.2011261,iTaiwan/iTaoyuan
大園區,大園竹圍漁港商圈漁業大樓前左側燈桿,25.11047935,121.2318192,iTaiwan/iTaoyuan
大園區,桃園藝文廣場南平路266號號誌桿,25.03802681,121.2806473,iTaiwan/iTaoyuan
大園區,平鎮新勢公園延平路一段201號對面號誌桿左前方,25.03802872,121.280632,iTaiwan/iTaoyuan
大園區,ITWH000846桃市府環境稽查大隊大園中區停車場辦公室,25.08228683,121.1770782,iTaiwan/iTaoyuan
大園區,桃園市政府消防局竹圍分隊,25.10042763,121.2406616,iTaiwan/iTaoyuan
大園區,ITW001140大園區生命紀念館,25.0379734,121.2806091,iTaiwan/iTaoyuan
大園區,桃園市大園區衛生所,25.06347656,121.1955109,iTaiwan/iTaoyuan
大園區,桃園市政府警察局大園分局,25.06332397,121.1956635,iTaiwan/iTaoyuan
大園區,ITWH001152桃園市立圖書館大園分館5F,25.06432724,121.1958313,iTaiwan/iTaoyuan
大園區,ITWH001151桃園市立圖書館大園分館4F,25.06439209,121.1953278,iTaiwan/iTaoyuan
大園區,ITWH000845桃市府環境稽查大隊大園中區辦公室,25.03798676,121.2807083,iTaiwan/iTaoyuan
大園區,桃園市大園區公所,25.03800392,121.2807159,iTaiwan/iTaoyuan
大園區,桃園市大園區戶政事務所,25.06794739,121.195961,iTaiwan/iTaoyuan
大園區,三和圖書室,25.0379734,121.2806625,iTaiwan/iTaoyuan
八德區,桃園市八德區戶政事務所,24.92905998,121.286377,iTaiwan/iTaoyuan
八德區,桃園市立圖書館八德分館,24.9286232,121.2848129,iTaiwan/iTaoyuan
八德區,八德埤塘生態公園,24.94966507,121.3124008,iTaiwan/iTaoyuan
八德區,桃園市政府警察局八德分局,24.93831253,121.3090057,iTaiwan/iTaoyuan
八德區,中壢舊社公園義民路103號前燈桿左前方,24.95500374,121.2413559,iTaiwan/iTaoyuan
八德區,中壢舊社公園義民路103號前燈桿左前方,24.95922852,121.29776,iTaiwan/iTaoyuan
八德區,ITWH001137桃園市八德區綜合大樓,24.96280861,121.2964325,iTaiwan/iTaoyuan
八德區,中壢龍岡森林公園龍岡路三段262巷38弄口燈桿左前方,24.9617424,121.2955475,iTaiwan/iTaoyuan
八德區,中壢長樂公園長樂街83巷8號前燈桿左前方,24.96190262,121.2957306,iTaiwan/iTaoyuan
八德區,桃園市立圖書館大湳分館,24.95689964,121.3020172,iTaiwan/iTaoyuan
八德區,桃園市八德地政事務所,24.95594978,121.3028717,iTaiwan/iTaoyuan
八德區,桃園市政府消防局茄苳分隊,24.96529388,121.2786942,iTaiwan/iTaoyuan
八德區,桃園市八德公有零售市場,24.93190575,121.2844925,iTaiwan/iTaoyuan
八德區,桃園市立圖書館建國閱覽室,24.95755386,121.2987595,iTaiwan/iTaoyuan
八德區,桃園市政府消防局大湳分隊,24.95719337,121.2967072,iTaiwan/iTaoyuan
八德區,ITWH001150桃園市綜合性身心障礙福利服務中心,24.93000031,121.2900009,iTaiwan/iTaoyuan
八德區,ITWH001230桃園市政府消防局訓練中心及防災教育館B1,24.93719864,121.2986374,iTaiwan/iTaoyuan
八德區,ITWH001229桃園市政府消防局訓練中心及防災教育館3樓,24.93705368,121.298645,iTaiwan/iTaoyuan
八德區,ITWH001228桃園市政府消防局訓練中心及防災教育館2樓,24.93712234,121.2985916,iTaiwan/iTaoyuan
八德區,ITWH001227桃園市政府消防局訓練中心及防災教育館1樓,24.93729401,121.2987213,iTaiwan/iTaoyuan
八德區,桃園捷運綠線先導公車智慧站牌-瑞豐國小(往八德),24.93695831,121.2971649,iTaiwan/iTaoyuan
八德區,桃園市政府消防局八德分隊,24.93911743,121.2985306,iTaiwan/iTaoyuan
八德區,桃園捷運綠線先導公車智慧站牌-麻園站(G03)(往八德),24.94744492,121.297348,iTaiwan/iTaoyuan
八德區,桃園捷運綠線先導公車智慧站牌-麻園站(G03)(往桃園),24.94744492,121.297348,iTaiwan/iTaoyuan
八德區,八德區衛生所,24.94739151,121.2982635,iTaiwan/iTaoyuan
八德區,桃園捷運綠線先導公車智慧站牌-忠誠新村(往八德),24.92625237,121.2964935,iTaiwan/iTaoyuan
八德區,桃園捷運綠線先導公車智慧站牌-大湳,24.95870209,121.2990341,iTaiwan/iTaoyuan
八德區,中壢五權兒童公園五族二街56號前燈桿左前方,24.96521568,121.3003616,iTaiwan/iTaoyuan
八德區,中壢五權兒童公園五族二街56號前燈桿右前方,24.96423531,121.3002014,iTaiwan/iTaoyuan
八德區,ITWH000895桃園市立兒童美術館6樓,24.96512985,121.2992554,iTaiwan/iTaoyuan
八德區,ITWH000894桃園市立兒童美術館6樓,24.9648819,121.2993469,iTaiwan/iTaoyuan
八德區,ITWH000897桃園市立兒童美術館5樓,24.96520042,121.2992706,iTaiwan/iTaoyuan
八德區,ITWH000896桃園市立兒童美術館5樓,24.96489143,121.2992096,iTaiwan/iTaoyuan
八德區,桃園捷運綠線先導公車智慧站牌-小大湳(往桃園),24.970389,121.301574,iTaiwan/iTaoyuan
八德區,桃園捷運綠線導公車智慧站牌-小大湳(往八德),24.970165,121.30172,iTaiwan/iTaoyuan
八德區,桃園捷運綠線先導公車智慧站牌-陸光四村(往八德),24.96209526,121.2994614,iTaiwan/iTaoyuan
八德區,桃園捷運綠線先導公車智慧站牌-陸光四村(往桃園),24.96209526,121.2994614,iTaiwan/iTaoyuan
八德區,桃園捷運紅線先導公車智慧站牌-高城社區(往中壢),24.980935,121.275087,iTaiwan/iTaoyuan
八德區,桃園捷運紅線先導公車智慧站牌-高城社區(往桃園),24.981091,121.275527,iTaiwan/iTaoyuan
八德區,桃園市八德區公所一樓,24.9287796,121.2847214,iTaiwan/iTaoyuan
中壢區,台灣高鐵桃園站[B1-03],25.01321,121.214873,iTaiwan
中壢區,台灣高鐵桃園站[1F-02],25.01321,121.214873,iTaiwan
中壢區,台灣高鐵桃園站[B2S-8],25.01321,121.214873,iTaiwan
中壢區,台灣高鐵桃園站[B2N-3],25.01321,121.214873,iTaiwan
中壢區,台灣高鐵桃園站[B2N-6],25.01648331,121.2184601,iTaiwan
中壢區,台灣高鐵桃園站[B2S-6],25.01648331,121.2184601,iTaiwan
中壢區,台灣高鐵桃園站[B2S-1],25.01648331,121.2184601,iTaiwan
中壢區,台灣高鐵桃園站[B2N-1],25.01648331,121.2184601,iTaiwan
中壢區,台灣高鐵桃園站[B2S-4],25.01648331,121.2184601,iTaiwan
中壢區,台灣高鐵桃園站[B2S-3],25.01648331,121.2184601,iTaiwan
中壢區,台灣高鐵桃園站[B2S-5],25.01648331,121.2184601,iTaiwan
中壢區,台灣高鐵桃園站[B2S-7],25.01581955,121.2184601,iTaiwan
中壢區,台灣高鐵桃園站[B1-05],25.01339149,121.2147293,iTaiwan
中壢區,台灣高鐵桃園站[B2N-8],25.01337242,121.215004,iTaiwan
中壢區,台灣高鐵桃園站[B2N-7],25.01337242,121.215004,iTaiwan
中壢區,台灣高鐵桃園站[B1-01],25.01335526,121.214798,iTaiwan
中壢區,台灣高鐵桃園站[B2N-4],25.01327705,121.2146912,iTaiwan
中壢區,台灣高鐵桃園站[B1-06],25.01321983,121.2147522,iTaiwan
中壢區,台灣高鐵桃園站[B1-04],25.01314354,121.214859,iTaiwan
中壢區,台灣高鐵桃園站[1F-03],25.01314354,121.214859,iTaiwan
中壢區,台灣高鐵桃園站[B1-02],25.01312828,121.2148743,iTaiwan
中壢區,台灣高鐵桃園站[1F-05],25.01292229,121.2147064,iTaiwan
中壢區,台灣高鐵桃園站[1F-04],25.01285553,121.2148895,iTaiwan
